id,naver_place_id,name,category,address,lat,lng,review_count,voted_total,voter_count
11,2031951701,피지피지,이탈리아음식,와우산로17길 19-18 1층,37.5495591,126.9213205,534,,
12,2004817631,아임도넛 홍대점,도넛,와우산로21길 14 1층,37.5524875,126.9231522,9,,
13,2069910314,도깨비집 홍대,요리주점,"와우산로 71 1층, 2층",37.5508499,126.9228799,1205,,
14,2051676381,국보감 홍대본점,"음식점, 한식",서울특별시 마포구 와우산로21길 21 1층,37.552314,126.9226474,277,,
15,56228015,우와 홍대본점,"일식, 일식당",서울특별시 마포구 와우산로21길 21-16 2층,37.5517143,126.9222234,4204,,
16,1967209597,하카타 호르몬,"한식, 육류,고기요리",서울특별시 마포구 독막로5길 26 1층,37.5491347,126.9185676,593,,
17,1605124064,시오 합정점,"일식, 일식당",서울특별시 마포구 독막로2길 30 1층,37.5472597,126.9143486,1017,,
18,1536277313,해옫 합정,"음식점, 양식",서울특별시 마포구 독막로8길 30 1층,37.546616,126.9176238,1547,,
19,1593016664,어반플랜트 합정,브런치카페,독막로6길 35 어반플랜트 합정,37.5464712,126.9170914,8467,31863,7801
21,1006983247,피그바,"육류,고기요리",독막로3길 28-7 1층,37.5495161,126.9174996,1706,6672,1533
22,2060110285,봉마루집 합정점,한식,양화로6길 103 1층,37.5484202,126.9198559,734,2896,706
23,1544497437,동백가옥 합정점,요리주점,양화로6길 38 1층 동백가옥 합정점,37.5488525,126.9162338,3398,12619,3263
24,1868930649,김숙성 합정점,"육류,고기요리",양화로8길 38 1층,37.549099,126.9166848,3166,12664,3050
25,2034963357,대목,"육류,고기요리","양화로6길 51 1층, 2층",37.5489368,126.9171895,442,1878,416
26,1837437884,토리비 합정점,이자카야,독막로 31-3 1층 101호,37.5485147,126.9170096,3164,12816,3020
27,1141833339,디벙크,"카페,디저트",성지1길 30 더보이드빌딩 지하1층,37.547935,126.915129,649,1680,565
28,2021917813,회사원 활어수산,생선회,독막로9길 5 1층,37.5486896,126.9195165,673,2322,562
29,20713591,홍대간장게장 홍일품,게요리,독막로 47-1 홍대간장게장 홍일품,37.54808,126.9187172,3798,12749,3340
30,1793807845,깃뜰 홍대본점,"육류,고기요리","잔다리로3안길 27 1, 2층",37.5504106,126.9197919,6915,28354,6508
31,1813916611,호맥 합정점,"맥주,호프",독막로5길 5 대웅빌딩 1층 호맥,37.5484775,126.9179106,5440,18257,4782
32,814481697,오레노라멘 본점,일본식라면,독막로8길 16 1층 오레노라멘,37.5472309,126.9178414,5391,10340,3519
33,36785829,팔로피자,이탈리아음식,양화로6길 9-20 카메오빌딩,37.5498886,126.9156166,1141,1902,618
34,1700484018,멕시코식당,"음식점, 멕시코,남미음식",서울특별시 마포구 독막로2길 23 1층 합정 멕시코식당,37.5475044,126.9145776,2183,16500,4773
35,1836765337,스케줄합정,양식,양화로6길 33 1층,37.5490726,126.9160549,3429,9377,2657
36,2010614292,라멘바 시코우,일본식라면,와우산로7길 33 1층 101호,37.5473426,126.9210466,50,150,37
37,1212665407,백소정 홍대합정점,일식당,독막로7길 51 2층,37.5500804,126.9198106,4874,20773,4312
38,2031793748,조연탄 합정점,"육류,고기요리",양화로8길 13 지1층,37.5501633,126.9162,918,3833,848
39,1648798478,다독이네 숯불구이 홍대합정점,돼지고기구이,독막로3길 28 1층 다독이네 숯불구이 홍대합정점,37.5494402,126.9172596,1357,5136,1237
40,2097765706,연막창 합정홍대점,"곱창,막창,양",양화로6길 65 1층,37.5486859,126.9177949,1268,4900,1219
41,1110516674,로우샹로우,양꼬치,양화로6길 50,37.5486801,126.9170391,1209,4538,1166
42,2036524941,잇쇼노미 스탠딩 이자카야,이자카야,독막로9길 38 상가 1층 101호 (가장 우측),37.5498627,126.9206151,334,1301,302
43,1856369355,메가MGC커피 합정역점,카페,양화로 46-1 1층,37.5494155,126.9142127,2286,2487,988
44,2000578115,숯토리 홍대합정점,이자카야,독막로9길 18 1층,37.5490304,126.9201275,657,2688,605
45,2095046405,자유의지 혼술바 서울홍대점,바(BAR),양화로6길 90 2층,37.5482344,126.9190796,746,3112,615
46,1162408095,별그리는바다,이자카야,어울마당로5길 17 1층,37.5491839,126.9194228,837,2993,766
47,763171477,당인리극장,요리주점,양화로6길 21 당인리극장 2층,37.5491956,126.915462,1557,5382,1394
48,36803583,철인7호 치킨 홍대점,"치킨,닭강정",양화로6길 99-3 지1층,37.5485323,126.919811,1595,4482,1208
49,1541014043,명륜진사갈비 서울 합정점,"육류,고기요리",독막로 17 1층,37.5487306,126.9153623,1073,1766,566
50,20986095,구공탄곱창 홍대본점,"곱창,막창,양",양화로6길 77 1층,37.5485511,126.9185027,1647,3803,1100
51,1891237792,교집합,요리주점,독막로 14 상록수빌딩 지하1층,37.5484269,126.914912,6223,26030,6017
52,1429108683,야키토리잔잔 합정점,이자카야,양화로6길 10 1층,37.5493495,126.9147783,1086,4111,1028
53,35554133,오리지널시카고피자 홍대본점,피자,독막로7길 51 3층 CHICAGO,37.5500912,126.9197782,1029,2656,794
54,1935683021,테이스티버거,햄버거,독막로 67-11 행운빌딩 1층,37.5482433,126.9207157,1831,3242,1108
55,1842859846,돼지대학교 무한리필,돼지고기구이,독막로 15 돼지대학교,37.5487519,126.9152684,701,1583,465
56,1064736730,양화주택 홍대,요리주점,양화로8길 32-5 1층,37.5492303,126.91624,2462,9646,2321
57,1303113077,타오마라탕,마라탕,양화로6길 19 광명빌딩 2층,37.5492446,126.9153346,6265,17120,4207
58,1731553966,포그,피자,독막로2길 34 1층,37.5471565,126.9142857,1222,4549,1171
59,1400688618,올더어글리쿠키&트레몽,"카페,디저트","토정로 45 1, 2층",37.5456431,126.9159323,2298,8101,2129
60,1273730865,홍홍 합정점,중식당,"양화로 56 104호, 105호",37.5498941,126.9151378,563,2360,487
61,1025472985,사람사는이야기 합정점,요리주점,어울마당로5길 52 사람사는이야기 합정점,37.5500443,126.9179627,932,2625,694
62,21535803,안녕낯선사람,카페,"어울마당로5길 40 1층 카페 안녕,낯선사람",37.5497944,126.9185288,634,1163,335
63,31694410,키친485 홍대,양식,양화로6길 67 1층,37.5486875,126.9179484,2493,7534,1867
64,1686455081,아니키 합정,요리주점,어울마당로5길 47 1층,37.5498011,126.9181595,1177,4199,1121
65,1461685837,호계 합정본점,요리주점,양화로6길 57-13 지1층 호계 합정,37.5491926,126.9177245,1549,6209,1440
66,1052840524,몽주방 홍대점,요리주점,독막로7길 20 1층 몽주방 홍대점,37.5487081,126.9191007,1983,6683,1872
67,34780088,물고기초밥,"초밥,롤",양화로6길 66,37.5484833,126.917712,874,1965,619
68,37420517,델리인디아,인도음식,독막로9길 8 2층,37.5486828,126.9197468,5067,12082,3004
69,37630215,비볼리 합정,이탈리아음식,독막로 31-3 2F 비볼리 합정,37.548539,126.9169482,1803,5616,1428
70,1887795755,컴피,양식,양화로6길 32 2층,37.5488736,126.9159698,4796,17599,4675
71,1758292957,부대옥 홍대점,"찌개,전골",어울마당로 56 201호,37.5499202,126.9212478,1662,6760,1440
72,2084309088,더블 다운 펍,"맥주,호프",양화로6길 57-5 2층,37.5489404,126.9174542,258,1150,226
73,1955616490,합정초밥집,"초밥,롤",독막로3길 38 2층,37.5498387,126.9175403,688,2708,641
74,1095319756,치즈매,"카페,디저트",양화로6길 57-13 지1층 B04호,37.5492842,126.9177959,575,2448,505
75,1312393345,퍼셉션 합정,"카페,디저트",어울마당로1길 16 1층,37.5466632,126.9184928,883,2209,608
76,1125037096,네즈,이자카야,성지3길 60 2층,37.546114,126.9161651,1082,4107,982
77,2010982280,용식당,중식당,와우산로15길 40 지1층 B02호,37.5489942,126.9212423,78,301,73
78,2094884039,누리마을감자탕 홍대직영점,감자탕,어울마당로 55-1,37.5501451,126.9209388,595,2047,547
79,1644108012,만선호프 홍대점,"맥주,호프","와우산로17길 15 1층, 2층",37.5500894,126.9221145,343,940,260
80,1680391092,정육도,"육류,고기요리",양화로6길 14 2층 정육도,37.5491951,126.9148751,1252,4027,1057
81,1696073606,언덕집,요리주점,양화로10길 20 1층 101호,37.5507076,126.9174825,749,2875,691
82,2062040625,오차야,일식당,와우산로13길 49 2층,37.5484594,126.9208463,4042,15101,3933
83,38780095,투썸플레이스 합정역점,카페,독막로 5 2층,37.5489611,126.9143241,5877,6784,2699
84,35431552,빈브라더스 합정,카페,토정로 35-1,37.5456938,126.9149771,1229,2692,770
85,1386044935,도피,중식당,독막로3길 21 지층1호 도피,37.5493472,126.9168913,661,2789,625
86,1740988081,서울브루어리 합정,"맥주,호프",토정로3안길 10,37.5459395,126.9146262,710,1577,457
87,985351305,꼼보포차 홍대,요리주점,와우산로17길 19 2층,37.5500585,126.921891,1792,5787,1513
88,1286002957,79파운야드 합정점,베이커리,양화로6길 80 1층,37.5483564,126.9185627,707,2056,634
89,1519042097,머씨커피,"카페,디저트",양화로8길 32-10,37.5495045,126.9160008,1009,2502,925
90,1414076813,소코아 홍대점,카레,와우산로15길 49 1층 소코아 홍대점,37.5486254,126.9208781,3251,10213,2785
91,38276438,콜린,"카페,디저트",어울마당로 45 1~2층,37.549231,126.9204345,3321,5189,1838
92,1450843022,민규아빠네베이글 합정점,베이글,독막로8길 15 1층,37.5471801,126.9181967,836,1817,532
93,374694216,금옥당 서교점,"카페,디저트",어울마당로 39 1층,37.5487459,126.9203418,1310,1785,748
94,1938863389,바코포차,요리주점,독막로3길 35 1층,37.5498728,126.9173497,658,1354,438
95,1269422309,제이케이펍,"맥주,호프",어울마당로5길 46 2층,37.5499484,126.9182128,1720,6689,1482
96,1033794956,해머플레이스,"카페,디저트",독막로8길 15-9 1층,37.5469253,126.918318,6754,28320,6543
97,1927755569,서교주담 합정,요리주점,어울마당로5길 46 1층 서교주담 합정,37.5499208,126.9182087,1419,4927,1314
98,1537730077,정돈 홍대점,돈가스,어울마당로 46,37.5490684,126.9209635,3566,10437,2691
99,31777479,맛이차이나,중식당,독막로 68,37.5476115,126.9208635,1324,1962,660
100,1750900108,카레시 합정본점,카레,독막로9길 31 1층,37.5496722,126.9202478,2323,5917,1666
101,2028989444,로위하우스,"카페,디저트",독막로15길 7,37.5482333,126.9219517,688,2656,679
102,1190132169,핌피 홍대,양식,"와우산로15길 24 1, 2층",37.5494918,126.9218293,1179,4868,1161
103,11856660,홍대삭 상수본점,종합분식,독막로 71,37.5479423,126.9213053,1716,2377,849
104,1823315743,해물점 합정점,요리주점,독막로3길 24-9 1층,37.5492149,126.9173776,781,3367,742
105,2063565336,끌림 서울점,요리주점,독막로 18 지하1층,37.5483282,126.9152457,41,174,33
106,1898511767,너구리베이글 합정점,베이커리,양화로6길 49 1층,37.5488757,126.9169438,2313,6684,2088
107,1647547761,소금제면소 홍대,일본식라면,와우산로17길 26 1층,37.5502888,126.9215063,1371,5637,1076
108,1456435836,반라이,일본식라면,독막로15길 3-12 102호,37.5484285,126.921529,571,1809,377
109,1679177431,피쉬버켓 합정,"다이어트,샐러드",독막로2길 10 1층,37.5481802,126.9145588,1082,2243,623
110,1363731639,탐라육해 홍대점,요리주점,독막로9길 41 1~2층,37.5500641,126.9204884,1910,7851,1681
111,1452804697,프로토콜 상수점,카페,어울마당로2길 13-4,37.5463337,126.9201298,69,225,64
112,1165792162,구울램 합정,양꼬치,양화로6길 57-13 1.5F 구울램,37.549203,126.9177021,2144,8882,1976
113,1259164793,너가술집사장,요리주점,와우산로19길 19 2층 너가술집사장,37.5512056,126.922031,2021,7914,1929
114,1022434008,베니케이크,"카페,디저트",독막로15길 17 1층 베니케이크,37.5485432,126.9219619,4725,18925,4474
115,1442258641,후라토식당 상수직영점,일식당,독막로15길 3-14,37.5485775,126.9213747,3540,9382,2713
116,1679375225,주락간,요리주점,독막로3길 27 1.5층,37.5496302,126.9170265,3183,12984,3024
117,20887080,신김치생삼겹살,돼지고기구이,양화로 50,37.5495268,126.9145072,512,666,280
118,1845553891,타키 합정점,일식당,독막로 27 1층,37.548477,126.9165169,1039,4199,1004
119,1393537490,야키톤 톤토로 합정점,이자카야,독막로7길 56 1층,37.550176,126.9202858,1365,5546,1269
120,1829693931,온복국수 본점,종합분식,양화로 72 1층 125호,37.5510758,126.9168511,972,3541,867
121,1972391847,드롭탑 홍대점,카페,"어울마당로 45-1 1층, 2층",37.5493189,126.9205592,1519,1641,755
122,1521114184,오아시스랩,카페,잔다리로3안길 12 1층,37.5509326,126.9191068,47,200,33
123,1733979736,도리곱창 합정 본점,"곱창,막창,양",어울마당로5길 4 1층 도리곱창 합정본점,37.5489698,126.9202534,1861,7494,1666
124,1818232658,칼누들바 홍대점,요리주점,잔다리로 14 1층,37.5508933,126.921649,653,2429,611
125,1238923947,스테레오타입 합정 바이 더뷰,바(BAR),양화로6길 76 2층,37.5484111,126.9182689,1440,6083,1386
126,1518470167,킹케밥 홍대점,터키음식,와우산로19길 19 1층,37.5512261,126.9220356,406,1171,337
127,1574927616,짚불돈 합정,"육류,고기요리",양화로6길 76 1층,37.5484344,126.9182358,3699,14514,3380
128,2070765090,어서와칼국수 홍대합정점,"칼국수,만두",어울마당로 37 1층,37.5486227,126.9202686,1392,5478,1271
129,1099123355,가츠신 본점,돈가스,독막로2길 22 1층,37.5476197,126.9144831,1209,3405,958
130,1844126724,썬키친,퓨전음식,양화로6길 50 2층,37.5486281,126.9170383,954,2321,770
131,2033705943,저스트,양식,토정로3안길 18 지하 1층,37.5459349,126.9150556,98,180,38
132,18352005,마루돈까스,돈가스,양화로6길 17,37.5492416,126.915181,954,933,403
133,13122422,당고집,카페,어울마당로3길 5 1층,37.547256,126.9192999,1204,2054,819
134,1526809187,두놈포차,요리주점,양화로6길 18 B동 2층,37.5490199,126.9152241,973,3864,939
135,2053634950,할매기름집 홍대점,"전,빈대떡",어울마당로 51 1층,37.5496592,126.920744,490,1747,477
136,1640039662,MUU한우다이닝 합정,소고기구이,독막로5길 28 2층,37.5492723,126.9186611,115,525,114
137,1151329599,뱃살도둑 합정역점,"다이어트,샐러드",양화로 72 1층 124호,37.5510955,126.9168044,2134,7714,1288
138,1188843453,독타운피자펍,요리주점,양화로6길 48 2층,37.5487054,126.9167886,1667,5428,1495
139,2066786830,조개우물보쌈&칼국수,한식,독막로3길 30 1층,37.5495758,126.9172968,1426,5035,1378
140,1230485898,시월,요리주점,독막로3길 33 2층,37.5497694,126.9172654,362,1224,303
141,1294694156,야키토리 나루토 상수 본점,이자카야,독막로9길 26 반지층 야키토리나루토,37.5493977,126.9201847,1543,4730,1198
142,13538858,옹달샘 본점,한식,양화로6길 99,37.5484266,126.9197452,726,1157,397
143,1193759736,에이셉피자 홍대점,피자,어울마당로 49 2F,37.549565,126.9206949,1260,4780,1208
144,1000125214,부엉이산장 홍대점,요리주점,"잔다리로 9 2, 3층",37.5505708,126.9219511,1611,6607,1499
145,20593670,버튼업 합정,양식,토정로 53-9 1층,37.5456584,126.916692,1215,4849,1046
146,1571367042,슈퍼노바,요리주점,독막로3길 21 2층,37.5493406,126.9168302,934,3965,911
147,37542231,베이스캠프 홍대본점,돼지고기구이,잔다리로3안길 21,37.5507968,126.9196935,331,673,194
148,1681042848,진켈란젤로 치즈케이크,케이크전문,독막로8길 10 조현빌딩 1층 진켈란젤로,37.5475037,126.9180072,551,1487,489
149,1700005906,스니커즈 버거 클럽,햄버거,와우산로17길 24 1층,37.5502534,126.9216266,267,1018,232
150,1661787502,산미나리닭한마리,한식,양화로6길 14 1층 코너점포,37.5491991,126.9149666,1071,4088,1045
151,19866326,피오니,케이크전문,독막로7길 51,37.5500709,126.9198294,3987,4436,2014
152,31427518,브라운,요리주점,양화로6길 21 지하1층,37.5491953,126.9154935,104,163,59
153,1447452112,수상한베이글 홍대,카페,와우산로15길 22,37.5496284,126.9218429,8392,32143,7370
154,19994426,버거4.5,햄버거,토정로 49 1층,37.5455931,126.9163692,394,771,193
155,1230882641,쿄오카이,이자카야,양화로8길 32-15 1층 101호,37.5493797,126.915796,708,3063,621
156,365735446,육값하네,"육류,고기요리",양화로6길 94 육값하네,37.5482863,126.9193254,147,188,93
157,1847640615,미니멀비,"카페,디저트",토정로 49-20 1층,37.5460946,126.916534,1286,4934,1204
158,1352674026,집밥김치찌개 본점,한식,와우산로13길 25 1층 집밥김치찌개,37.5491302,126.9219949,528,1868,464
159,1497981923,정통집 홍대점,돼지고기구이,와우산로19길 27,37.5512305,126.9216933,1858,6453,1723
160,1266638776,합정공감,이자카야,양화로6길 49 2F,37.5489273,126.9170167,3128,9807,2727
161,1569635151,당인동국수공장,막국수,와우산로3길 48-3 당인동국수공장,37.5457703,126.9202282,502,921,301
162,1660013501,낀낀,태국음식,독막로3길 7 2층,37.5487959,126.9164205,359,1398,258
163,1757296214,무소식,"카페,디저트",잔다리로 19 3층,37.5506273,126.92086,329,1205,310
164,1732575894,또보겠지떡볶이집 호호피크닉점,분식,독막로3길 34 2층,37.5497122,126.9174274,1310,1552,579
165,1019592431,대포막창,"곱창,막창,양",양화로6길 57-5,37.5489074,126.917508,403,641,246
166,13326707,한신포차 홍대점,포장마차,잔다리로 13,37.550613,126.9216235,860,983,492
167,1226316838,어부블루스 합정,생선회,양화로6길 21 별관 1층,37.5491953,126.9154936,820,3001,775
168,37322669,철판집,요리주점,독막로3길 24-11 1층 철판집,37.5491589,126.9176256,1310,4821,1197
169,31469248,경주식당 홍대본점,"육류,고기요리",와우산로13길 49-7 1층 경주식당,37.5484348,126.9211435,2386,7447,1903
170,2025520305,코브하우스,"카페,디저트",와우산로 39-15 1층,37.548043,126.9221337,66,287,63
171,1073640740,데빌스바지니코,이탈리아음식,토정로 28-7 1층,37.5452253,126.914299,332,1374,302
172,1269507110,마포오리농장,오리요리,양화로 58 명지빌드웰 1층 마포 오리농장,37.5500423,126.9153198,954,2735,646
173,1724788044,터틀탭스,"맥주,호프",양화로6길 57-7 1층 일부,37.5490191,126.9175228,194,834,165
174,1288575498,새검정,"카페,디저트",독막로2길 17 1층,37.5478255,126.9147013,242,631,194
175,1700930086,폴드 베이커리,베이커리,독막로2길 31 1층,37.5471718,126.9145148,755,2915,684
176,1204005079,김억삼포장마차,포장마차,"잔다리로 8 1, 2층",37.5509003,126.9222234,897,2180,743
177,187818500,빼레,요리주점,독막로5길 23,37.5491024,126.91826,875,3230,749
178,1006791410,미필담,한식,성지3길 22 1층 미필담,37.5466435,126.9142537,266,818,239
179,1510386366,네코네주방,이자카야,어울마당로5길 42 1층 네코네주방,37.549803,126.9184689,105,378,95
180,2017389573,도트 합정,이탈리아음식,성지1길 69 1층 도트,37.5476247,126.9172703,332,1432,259
181,38555697,깊은숲,"맥주,호프",독막로 27 지하1층,37.5485053,126.9165758,865,3161,779
182,2021878792,호앙비엣 합정점,베트남음식,양화로6길 14 1층 호앙비엣 합정점,37.5491981,126.9149057,176,650,165
183,1323295237,플랑,"카페,디저트",와우산로11길 9-8 102호 FLAN,37.5486056,126.9222379,1293,4658,1047
184,1144606990,데이포레코드,"카페,디저트",양화로6길 57-10 2층,37.549036,126.9179678,20,77,19
185,2007171607,마포라스토랑,일본식라면,와우산로11길 28 지1층 B03호,37.5487522,126.9214001,68,225,45
186,1728801704,메가MGC커피 상수로데오점,카페,어울마당로 40 1층 101호,37.5485534,126.9206605,116,205,74
187,36948131,배스킨라빈스 홍대상상마당,아이스크림,어울마당로 61,37.5504927,126.9210217,3362,2648,1418
188,1239761521,스시로운생활,"초밥,롤",양화로 72 129호,37.5508763,126.9170523,1083,4530,870
189,1831491932,쿠시카츠 오지상,이자카야,독막로3길 24-11 지1층,37.5491033,126.9175809,479,2168,449
190,2022795542,레이델타코,"멕시코,남미음식",독막로2길 18 1층,37.5477557,126.9145081,864,3472,773
191,11839441,이리카페,카페,와우산로3길 27,37.5458719,126.9216565,357,631,169
192,1411439633,반주시대,요리주점,잔다리로 11 1층,37.5506079,126.9218323,878,3360,824
193,37838090,이디야 합정동점,카페,양화로6길 90 1층,37.5482704,126.9191064,1316,1534,623
194,1819348295,라라와케이 다이닝,와인,어울마당로5길 50 1층 라라와케이 다이닝,37.5500313,126.918107,1344,5883,1322
195,1615292526,스키야키201 합정역본점,샤브샤브,양화로6길 10 2층,37.5493482,126.9147175,2455,9819,2239
196,1152866497,합정광안리 숙성횟집 2호점,생선회,독막로3길 50 합정광안리 2호점,37.5503305,126.9178784,3174,10680,3001
197,1431998274,어른이대공원,요리주점,양화로6길 100 1층,37.5482506,126.9195996,137,312,126
198,1114771656,개성곰탕 합정본점,국밥,양화로 45 메세나폴리스 몰 B144 지하1층,37.5508187,126.9141212,521,2134,484
199,1048787673,마뽀즈 비건케이크,"카페,디저트",양화로6길 60 1층,37.5485807,126.9174042,803,1679,537
200,1395301811,디엠 합정점,요리주점,독막로3길 29 지하1층,37.5496866,126.9170945,1584,6915,1530
201,20510754,달콤한거짓말,케이크전문,"독막로 61-4 1, 2층",37.5480922,126.9205598,1187,2097,677
202,1059603025,아야나 메이드카페 홍대본점,"카페,디저트",와우산로19길 21 지하1층,37.551187,126.9218772,188,701,115
203,1147146405,어사출또 합정역점,생선회,양화로6길 18 B동 1층 어사출또 합정역점,37.5490294,126.9152938,1222,1396,538
204,1309215481,올유캔잇 홍대상수점,뷔페,"독막로 73-1 2, 3층",37.5479878,126.9216305,4958,18889,4539
205,2021605377,서울혼술바 제주혼자옵서예 홍대점,바(BAR),어울마당로 60 3층,37.5504164,126.9213249,186,790,172
206,2067074392,토요지로,일본식라면,독막로15길 13 1층,37.5483661,126.9219988,370,1419,335
207,2051542117,제제집 홍대점,한식,와우산로15길 30 지1층 제제집,37.5492561,126.9216312,579,2035,491
208,33299940,김씨네심야식당,이자카야,와우산로3길 28,37.5460009,126.9214793,342,579,163
209,2013145164,위더상수,술집,와우산로 39-13 1층,37.5480778,126.9222633,136,621,128
210,34259269,대동,이자카야,독막로7길 23 대동빌딩 1층2층,37.5489842,126.919007,523,1319,405
211,31427861,카페드로잉,"카페,디저트",독막로9길 34 1층,37.5497274,126.9204623,2301,7248,1812
212,33707338,빠넬로,이탈리아음식,어울마당로5길 29,37.5494133,126.9190158,491,903,277
213,1597663345,보승회관 서교점,국밥,와우산로19길 15 1층,37.5511936,126.9222768,801,2643,722
214,37349717,동피랑,"해물,생선요리",와우산로3길 29,37.5458266,126.9214087,1246,4389,1104
215,13475125,겐로쿠우동 홍대본점,"우동,소바",어울마당로 39,37.5487665,126.9203208,1655,2951,905
216,1406660024,띠오 데 산타바바라 합정점,"멕시코,남미음식",어울마당로5길 50 지층A 띠오 데 산타바바라,37.5499877,126.9180721,740,2223,630
217,748301072,왔쏘 홍대점,소고기구이,독막로7길 20 2층,37.5487135,126.9191345,277,390,142
218,1418628816,자자,중식당,독막로 18,37.5483795,126.9152746,339,996,226
219,1319671163,룸의정석 홍대점,요리주점,잔다리로 12 홍석빌딩 2층,37.550924,126.921815,262,828,224
220,1601204746,이응이응이응이응 상수점,양식,"독막로 63-1 1층, 2층",37.5480582,126.9206914,2330,8044,2053
221,1826236733,야닝,와인,양화로6길 99-11 3층,37.548827,126.9199802,893,3677,877
222,1877717539,"눈내리는숲, 설래임 홍대본점","카페,디저트","어울마당로 54 1층 눈내리는숲, 설래임 홍대본점",37.5498091,126.9211795,485,1222,438
223,1434768869,청미닭발,요리주점,독막로3길 23 지1층,37.5494141,126.9169758,3049,11465,2892
224,1094939070,이자카야 코지 합정점,이자카야,독막로3길 18 2층,37.5491146,126.9169103,407,1662,374
225,1574560244,더 씨,생선회,독막로3길 26 1층,37.5494173,126.9171391,466,1520,376
226,2000323741,합정 로타리,이자카야,독막로9길 6 1.5층,37.548574,126.9196462,191,823,183
227,1130004491,해피베어데이 상수점,"카페,디저트",와우산로13길 49-6 1층 해피베어데이,37.5483382,126.9211979,766,2475,728
228,1345284209,멧커피 홍대점,"카페,디저트","어울마당로5길 42 1층, 3층",37.5498728,126.9184179,2968,10533,2662
229,1346143581,펄스,요리주점,토정로3안길 18 1.5층,37.5459563,126.9150497,492,1718,393
230,1839168978,소셜클럽 아이엘엘,바(BAR),와우산로13길 21 지1층,37.5493298,126.9221211,160,642,151
231,2063480178,잔담,요리주점,독막로3길 39 1층 잔담,37.5499986,126.9174694,384,1667,367
232,1830850370,한신우동 홍대점,"우동,소바",어울마당로 34 1층,37.5481994,126.9204035,165,544,145
233,2079815378,도그아웃펍,"맥주,호프",독막로3길 51 1층 도그아웃펍,37.5504036,126.9177449,100,391,88
234,1813788075,모리츠플라츠,"카페,디저트",와우산로15길 34 1층,37.5491814,126.9214927,1447,5905,1207
235,1594728812,시실리 합정점,요리주점,독막로9길 9 1층,37.5487825,126.9196051,190,328,125
236,54733254,그레이랩,"카페,디저트",토정로3길 16 1층,37.5462626,126.9143495,832,1156,444
237,379438764,silhouette coffee,"카페,디저트",독막로8길 33-5 1층,37.5463855,126.9180097,584,1686,447
238,35940382,합정생고기김치찌개,한식,독막로 49,37.5480717,126.9188302,400,583,230
239,2048717263,살롱 드 솔내,와인,양화로6길 57 3층,37.5488097,126.9174058,15,64,13
240,1134372647,상수김치삼겹살,돼지고기구이,독막로 76 1층 101호,37.5476335,126.9217487,342,561,195
241,1478723287,커피랩스로스터리 합정점,카페,양화로6길 27 1 2층 커피랩스로스터리 합정점,37.5491312,126.9157045,586,1020,416
242,2092063911,서원안길 합정,브런치카페,"잔다리로3길 34 1층, 2층",37.5506711,126.9178776,20,92,18
243,1732949952,카이화 상수 중국집,중식당,독막로 73 2층,37.5478985,126.9215769,716,1825,416
244,1513540731,바이어리셔,베이커리,독막로15길 24 1층,37.5487625,126.922186,378,1044,313
245,1954904928,이츠야,돈가스,양화로6길 99-9,37.5487338,126.9199539,200,685,174
246,38555520,마카로니펑키클럽,바(BAR),양화로6길 32 통화보다 문자 메세지 주시면 빠르게 회신해 드려요..,37.5489096,126.9159569,85,234,48
247,1704041335,지하102호 5호점,이자카야,"독막로3길 13 1층, 2층, 3층",37.5489649,126.9165473,454,1775,418
248,1966684934,미믹 홍대점,"맥주,호프",잔다리로3안길 31,37.5502612,126.9194974,30,122,30
249,1383348319,베리비지버거,햄버거,성지1길 27 1층 베리비지버거,37.5481143,126.9149083,403,1508,376
250,1843770441,아톰의 비밀기지,요리주점,양화로6길 79,37.5485123,126.91869,708,2842,671
251,2097905704,메버릭하우스,"카페,디저트",어울마당로5길 3 3층,37.5487981,126.9201813,114,501,110
252,1450653806,세이코우,이자카야,독막로5길 17 1층 101호,37.548806,126.9181419,699,2869,671
253,1777271126,만월당 합정점,요리주점,독막로3길 27 1층 만월당,37.5495791,126.9171076,1243,4719,1209
254,2070590686,멘야수,일본식라면,양화로 56 동양한강트레벨 B103-2호,37.549693,126.9150704,62,220,54
255,37755606,구워삶다 합정점,돼지고기구이,독막로3길 46,37.5500996,126.9177954,1326,3316,928
256,2053111388,동주 합정점,요리주점,독막로7길 41 1층,37.5496746,126.9195074,554,2330,530
257,1275909305,생마차 합정점,이자카야,독막로 56,37.5477137,126.9194629,541,1944,483
258,1287686912,도깨비파티하우스,"맥주,호프",와우산로17길 22 1F,37.5502314,126.9218063,143,352,82
259,36785839,낮달,요리주점,독막로5길 8 1층 낮달,37.5483507,126.9180118,378,642,214
260,1631720496,시루케이크 합정,"카페,디저트",어울마당로1길 18 1층,37.5467354,126.9182183,96,356,87
261,20694388,탐라식당,국수,와우산로3길 19 1층,37.5459048,126.9218579,175,386,115
262,1430943747,상수주택,요리주점,독막로15길 19 2층 상수주택,37.5486521,126.9219486,437,1630,424
263,1265687515,에포크,카페,독막로 17-1 에포크,37.5486926,126.9155216,102,296,79
264,2066596436,합정카페 웨하로스터스,"카페,디저트",성지1길 35 1층,37.5480169,126.9154868,357,1305,354
265,1360646601,케이크예스플리즈,"카페,디저트",독막로7길 45 지하1층,37.5498207,126.9195486,106,189,67
266,13316501,앤트러사이트 합정점,"카페,디저트",토정로5길 10,37.5458323,126.9184372,3410,4194,1439
267,1042607763,블러,"카페,디저트",토정로 28-10 4층,37.5450277,126.9142075,2431,9280,2358
268,1453348746,노호마리노,"카페,디저트",토정로3안길 17 전체,37.5460813,126.9151381,1947,7957,1779
269,2023230455,콘피 합정점,"카페,디저트",양화로 66 1층 101호,37.550593,126.9160813,913,3709,883
270,1273833411,홍대카페,"카페,디저트",어울마당로 68,37.551176,126.9214848,1691,6036,1464
271,30837367,서교동398,카페,어울마당로5길 36,37.5496889,126.918669,239,309,110
272,1403773455,카페 공명 홍대점,"카페,디저트","와우산로17길 11-8 1층, 2층, 3층",37.5499077,126.9220185,6585,25036,6288
273,1122958977,카페 스윗피,카페,독막로15길 3-6 2층 201호,37.5482771,126.9217872,50,155,46
274,1183886819,이디야커피 합정역사거리점,카페,독막로2길 5 1층,37.5482672,126.9148034,724,893,376
275,1354715812,395빵집,베이커리,양화로8길 25-3 1층,37.5496204,126.916552,354,829,205
276,2031800935,카페 크리스타리움,"카페,디저트",양화로6길 18 B동 3층,37.5490199,126.9152241,15,62,15
277,1671232472,아크로마커피바,카페,와우산로3길 16 1층 아크로마커피바,37.5461026,126.922002,921,4195,851
278,1233243433,더벤티 마포합정점,카페,독막로 42 1층 더벤티 마포합정점,37.5478159,126.9180549,80,153,59
279,2040137477,그림서재,북카페,와우산로 29-18,37.5473957,126.9219395,293,1395,274
280,1457455241,휴고살롱,"카페,디저트",어울마당로 19 1층,37.5470566,126.9194459,88,372,77
281,1517597224,허밍벨라,"카페,디저트","독막로7길 57 2층, 3층",37.5503614,126.9199612,618,2518,578
282,2015226269,메가MGC커피 합정성산중점,카페,독막로 46 1층,37.5477677,126.9185606,66,160,48
283,395964909,컨큐어,카페,독막로8길 28 1층,37.5467778,126.9177092,291,830,211
284,1786642850,컴포즈커피 합정점,카페,양화로6길 14 컴포즈커피 합정점,37.5492675,126.9148809,965,1063,310
285,2018029501,메가MGC커피 홍대상상마당점,카페,어울마당로 53 1층,37.5499532,126.9208951,18,33,13
286,2099338015,피오커피 합정,"카페,디저트",독막로 9 1층 1호,37.5488608,126.9145733,69,226,66
287,2087920340,엘로커피바 합정,"카페,디저트",양화로8길 16-9 1층,37.5496647,126.9159709,382,1555,366
288,2028851920,유어데이,"카페,디저트",와우산로13길 49-11 1층,37.5482445,126.9213312,87,368,85
289,36877700,내맘대로폰케이스 홍대점,테마카페,와우산로19길 21 빅마마건물 3층,37.5511861,126.9218848,172,313,89
290,2069165062,도로보 도넛,도넛,토정로4길 6-1 1층,37.5452113,126.9146837,236,886,229
291,1916597325,바이앤드커피,"카페,디저트","잔다리로3안길 44 2층 우측호, 3층",37.5506239,126.919172,513,1454,453
292,1255958724,바나프레소 합정역점,카페,양화로 72 효성해링턴타워 1층 107호,37.5510317,126.9164611,2760,4239,1200
293,1423000483,브라운시티 상수점,"카페,디저트",어울마당로 41 브라운시티 상수점,37.5489546,126.920392,1033,1416,567
294,21728200,데코아발림본점,카페,독막로15길 13-6,37.5484415,126.9217768,595,1074,361
295,1712965142,마이쥬스 합정점,"과일,주스전문점",어울마당로 36 1층 1호,37.5482885,126.920447,40,135,35
296,21693495,이고 수플레 합정본점,"카페,디저트",양화로8길 32-17 1층,37.5494337,126.9156172,601,778,294
297,1353843287,텐퍼센트커피 합정역점,카페,양화로 72 101동 109호,37.5509212,126.9162519,299,544,213
298,11712022,비하인드,카페,어울마당로5길 18 팜파스빌딩 1층 카페 비하인드,37.5492595,126.9196147,676,879,302
299,1748445084,케이클링,"카페,디저트",와우산로13길 49-6 1층,37.5483545,126.9209726,8,30,8
300,36476558,배스킨라빈스 합정역점,아이스크림,양화로 72 101동 108호,37.5509528,126.916343,2868,2387,1223
301,1871335160,벨라쿠키 본점,"카페,디저트",독막로7길 57 1층,37.550326,126.9199989,885,1490,476
302,1661977613,스윗도프,"카페,디저트",와우산로15길 33 2층 201호,37.5490585,126.921589,108,338,101
303,1280914854,이뮤 베이크샵,"카페,디저트",양화로6길 57-13 2층 202호,37.5492824,126.9177375,637,1961,523
304,1607539000,도란과소란,"카페,디저트",토정로3길 22 1층 2호,37.5465025,126.9145334,93,388,72
305,1984134484,오와케이크 합정역점,"카페,디저트",양화로8길 5 1층 101호,37.5505906,126.915861,344,1092,312
306,2054105439,라이브온,테마카페,어울마당로5길 6 2층,37.5491034,126.9203286,4,20,4
307,1102460956,티에리스티라운지,"카페,디저트",성지1길 39 7층,37.5480919,126.9156356,17,63,17
308,1948793457,루치펠 대저택,테마카페,와우산로17길 19-15,37.5495566,126.9216776,429,1756,231
309,1281748413,시멘트룸,"카페,디저트",와우산로3길 30 1층,37.5459782,126.9213219,39,168,35
310,1191223824,필리커피 합정,"카페,디저트",양화로6길 9 3층,37.5493803,126.9150088,51,194,49
311,1439877563,카페보니,"카페,디저트",독막로4길 7 1층 카페보니,37.5478565,126.9169768,170,307,106
312,1158836681,베가본즈커피,"카페,디저트",토정로 28-9 1층,37.5451132,126.9143388,77,355,73
313,2012505105,클루미유니버스,"카페,디저트",독막로8길 21 1층,37.5469607,126.91807,311,1377,276
314,1441450210,카페 클로버,"카페,디저트",양화로8길 38 서교동빌딩 2층,37.5491158,126.9166333,96,306,91
315,509258174,공차 홍대서교점,차,어울마당로 49,37.5495568,126.9207165,1247,1216,603
316,1407294917,펀치드렁크러브,"카페,디저트",와우산로15길 38 3층,37.5491141,126.9212316,11,39,10
317,1182245474,델핀커피바,"카페,디저트",토정로 31 1층,37.5457354,126.9144201,111,479,91
318,1600017906,카페공간 홍대점,"카페,디저트",어울마당로 44 2층,37.5488624,126.9208521,1544,6752,1392
319,1982553315,테라커피 합정점,"카페,디저트",독막로3길 52 1층,37.5504333,126.9179733,174,333,116
320,1824668876,말릭커피로스터스,"카페,디저트",와우산로 39-21 2층,37.5481997,126.9221946,4,12,4
321,1645505062,디저트39 홍대점,카페,독막로7길 60 디저트39 홍대점,37.5502781,126.9202251,185,416,161
322,2059948261,사이,"카페,디저트",토정로4길 6-4 1F,37.545267,126.9144992,11,45,11
323,1124014957,카페 트래블 어라운드,"카페,디저트",양화로8길 9 우리빌딩1층 카페 트래블 어라운드,37.5503426,126.9161064,420,798,170
324,2027241034,호걸커피,"카페,디저트",양화로 56 1층 101호,37.5498063,126.9150049,731,2755,680
325,1692152211,더드롭바이,"카페,디저트",독막로 38 1층 101호,37.5479132,126.9175441,154,507,119
326,1080698904,커피탐이나,"카페,디저트",잔다리로3안길 31,37.5502459,126.9195102,168,356,91
327,87471623,커피나커피너,"카페,디저트",양화로6길 62 세미텍빌딩,37.54853,126.9176148,232,236,104
328,2011125627,로제린 집사카페,라이브카페,와우산로17길 24 3층,37.5502986,126.9216382,339,1274,200
329,20362335,펠앤콜,아이스크림,와우산로 39-21,37.5481655,126.922122,271,307,129
330,1956425794,빽다방 합정역사거리점,테이크아웃커피,독막로2길 10 1층,37.5481888,126.9146078,416,692,167
331,1261845921,글라쇼 합정,아이스크림,독막로2길 6 1층 1호 글라쇼 합정점,37.5483113,126.9146656,1007,3593,971
332,1733917089,까사벨라즈,"카페,디저트",독막로8길 27 1층,37.5467009,126.9179691,520,2133,501
333,1504877786,하이럽,테마카페,독막로7길 42 2층 하이럽,37.5496255,126.9197412,237,259,103
334,1922515332,오디티,"카페,디저트",양화로6길 21 3층,37.5492086,126.915474,454,1731,440
335,1162621803,제이스 베이커리,베이커리,독막로 50 1층,37.5477631,126.9188152,294,1120,271
336,1014980615,벨베이크,"카페,디저트",독막로3길 24-11 1층 벨 베이크,37.5491427,126.9174867,142,592,110
337,1047685135,케이스페이스루나,스터디카페,독막로 10 5층 516호 케이스페이스루나,37.5484856,126.9144802,1,4,1
338,1917190958,루퍼 라운지 합정,"카페,디저트",토정로3안길 28 1층,37.5459261,126.9156215,44,199,40
339,1642493979,하르카쿠키,"카페,디저트",독막로15길 19 1층,37.5486881,126.9219903,190,840,165
340,1380647398,빵장수단팥빵 합정점,베이커리,양화로 72 효성해링턴타워 1층 110호,37.5508978,126.9162465,1630,2095,1036
341,1946644112,그로니,카페,어울마당로3길 5-6 1층 그로니,37.5471354,126.9192489,180,805,121
342,1688421773,록집,"카페,디저트",양화로6길 103 2층,37.5484339,126.9199052,61,275,61
343,2058320846,블릭크,"카페,디저트",독막로4길 9 1.5층,37.5477253,126.9169729,27,133,26
344,2024521228,수누아,케이크전문,양화로6길 99 3층,37.5484543,126.9197167,19,91,17
345,1625723797,냐냐냥 그릭요거트 합정본점,"카페,디저트",양화로 72 효성해링턴 타워 101동 제1층 제113호,37.5507778,126.916362,702,2560,402
346,1185772613,데네브,"카페,디저트",독막로8길 19 1층,37.547066,126.9181292,649,2654,605
347,1203495222,호또코히,"카페,디저트",독막로9길 33 반지층 카페 호또코히,37.5498195,126.920317,20,69,17
348,1301443996,파티세리 로그,"카페,디저트",양화로6길 86 1층,37.5482761,126.9188718,271,609,241
349,1236185577,매머드익스프레스 합정역해링턴타워점,카페,양화로 72 서교동 효성해링턴타워 1층 123호(동물병원 옆),37.5511342,126.9167537,421,803,184
350,2041719822,시나몬하우스 합정점,"카페,디저트",토정로3길 19 1층,37.5466038,126.9143825,1169,4427,1056
351,1830837290,럭키스트라이크,라이브카페,독막로3길 7 1층,37.5487922,126.9164533,67,216,60
352,1090777381,델문도,"카페,디저트",잔다리로 19-6 2층,37.5504968,126.9208627,317,769,255
353,1117019410,커피에반하다 마포양화로점 스마트 무인카페,카페,양화로 59 101호,37.550628,126.9148742,89,176,76
354,1399232180,베어글스 홍대상수,"카페,디저트",독막로 65-1 1층,37.5479732,126.9209274,302,1224,275
355,2063284316,아카이브 제트,"카페,디저트",양화로6길 92 2층,37.5482091,126.919182,13,54,13
356,13493263,노피디네콩볶는집,카페,잔다리로3길 31,37.5505282,126.9180926,355,440,148
357,1624643139,쏙티,케이크전문,어울마당로2길 19 1층,37.5460952,126.9203387,43,188,36
358,1517145996,260도씨 베이커리,베이커리,성지1길 15 1층,37.5482346,126.914285,188,437,142
359,2048870943,킬링타임오티티카페 홍대점,"카페,디저트","잔다리로 20 3, 4층",37.5509446,126.9208316,49,196,48
360,1222551336,잔존커피,"카페,디저트",독막로5길 33 1층 잔존커피,37.5494315,126.9186059,94,393,81
361,1161842254,카페키로,"카페,디저트",독막로7길 49 2층,37.5499711,126.9197763,506,210,83
362,1962729389,문화 합정,"카페,디저트",양화로6길 99 지하1층,37.5484543,126.9197167,355,1579,351
363,1497797836,히치하이킹클럽,"카페,디저트",독막로9길 3-4 1층,37.5487553,126.9193894,66,122,60
364,1522930827,다밍,테마카페,어울마당로5길 42-5 2층,37.5500505,126.9182687,13,39,13
365,1364277277,오페라빈 에스프레소바 합정점,"카페,디저트",독막로2길 22 1층 1호,37.5476608,126.9144845,127,324,109
366,1562047501,피스오브헤븐,베이커리,독막로 73 1층,37.5479554,126.9215156,293,717,195
367,2005363637,옐로우지프니,"카페,디저트",독막로 25 1층,37.548538,126.9161932,18,70,18
368,1201142943,베니베이크,"카페,디저트",독막로 36 1층,37.5479664,126.9173517,1643,5821,1288
369,2083990229,고요커피,"카페,디저트",양화로 72 1층 128호,37.550856,126.9171777,30,107,27
370,1635133792,샐리기타,라이브카페,어울마당로 55-4 B1,37.5503151,126.9207293,17,33,11
371,1977291755,카페 홀리데이,"카페,디저트",독막로15길 13-5 1층,37.5483244,126.921913,273,593,255
372,1500275966,앙그작,케이크전문,어울마당로1길 21 2층,37.5466537,126.9180809,80,344,72
373,2014951001,코프테일,"카페,디저트",어울마당로5길 28 지층 102호,37.5495354,126.9190314,22,98,17
374,1836378000,보이드 블랭킷 합정점,테마카페,토정로3안길 2 201호,37.5459405,126.9142881,508,1108,286
375,2025667259,푸루틴,"과일,주스전문점",독막로 77 1층,37.5479355,126.9221025,15,56,15
376,2099100596,카페엣지,"카페,디저트",와우산로11길 9-10 2층 카페 엣지,37.5484679,126.9222678,2,9,2
377,2049062808,퍼피,"카페,디저트",양화로6길 99-5 2층,37.5486328,126.919857,77,300,75
378,1244481703,너드플래닛,카페,와우산로13길 40 2층 301호,37.548856,126.9212551,266,593,239
379,31403023,Jazzda,카페,양화로6길 19 지하 1층,37.5492552,126.9152655,9,3,3
380,1847790905,소화원,베이커리,독막로 78 1층 2호,37.5476127,126.9222137,82,307,74
381,1106386458,태가커피,테이크아웃커피,독막로5길 16 1층,37.5487388,126.9182805,121,545,54
382,1894934522,캔디로그,카페,독막로9길 37-3 1층,37.5499429,126.9202744,224,459,192
383,2022540532,모스크룰러,"카페,디저트",독막로6길 14 지하1층 B02호,37.5474838,126.9173134,73,301,62
384,2028247959,우지커피 합정역점,"카페,디저트",독막로 11 1층 101호(합정동),37.5488495,126.9147841,1,,
385,1769556291,위위 라운지,케이크전문,성지1길 29 1층 102호,37.5480765,126.9151002,17,19,9
386,1925814579,카페 틈이있는곳,"카페,디저트",독막로15길 5 101호,37.5481574,126.9218123,383,1027,216
387,1401649488,파이피플,"카페,디저트",독막로7길 45 3층,37.5498253,126.9195786,156,668,122
389,2015284355,상수당,빙수,독막로 67 1층 좌측호,37.5479423,126.9209987,72,257,67
390,1297109311,옐로우벌스데이,"카페,디저트",독막로4길 11,37.5475888,126.9168843,111,249,105
391,1115325450,프롬커피바 서교점,"카페,디저트",독막로5길 32 1층 프롬커피바,37.5493423,126.9186936,107,169,60
392,1173769949,벨라크로와상,베이커리,독막로7길 57 1층 3호,37.5503512,126.9200115,125,393,117
393,2083609384,메이드리밍 메이드카페,"카페,디저트",잔다리로6길 28-1,37.5520612,126.9206504,1255,4776,717
394,1842347104,합정 지튼,"카페,디저트",양화로11길 42 1층,37.5523803,126.9145129,1473,3945,1112
395,2082860637,만월다방 시네마,"카페,디저트",와우산로 76 2층,37.5511274,126.9235409,663,2629,659
396,38338180,커피폴리,"카페,디저트",양화로11길 14 커피폴리 1층 2층,37.5520535,126.91592,2282,5507,1418
397,2093450256,헤디치,"카페,디저트",와우산로3길 37 HEDICI 헤디치,37.5457222,126.9209343,9,41,9
398,2070248165,하우스오브우물,"카페,디저트",성지길 40 1층,37.5469294,126.9126917,315,1183,314
399,2076095285,HYE,"카페,디저트",독막로12안길 25-16 지하1층,37.5465954,126.9207615,8,38,6
400,1908012658,투썸플레이스 합정메세나폴리스점,카페,양화로 45 메세나폴리스 지하1층 166호,37.5505562,126.9134737,3779,5241,2010
401,1932983871,코코넛박스 카페,"카페,디저트",홍익로3길 20 지하 2층,37.5535252,126.9217041,7888,30344,7427
402,811550330,밤부 베이커리&브루잉,"카페,디저트",월드컵로5길 33-23,37.5505875,126.9109582,1310,1745,626
403,2083536086,카페워커스,"카페,디저트",동교로12길 3 3층,37.5541117,126.9124233,44,186,43
404,1049314421,콤파일,"카페,디저트",잔다리로 73 1F,37.5540758,126.916398,1071,4088,971
405,1809577810,저스트단비 크레페 홍대점,"카페,디저트",잔다리로6길 30 1층,37.5522543,126.9208747,3375,12426,3266
406,1738290064,채비스테이 홍대점 카페 20 BOON,"카페,디저트",양화로 85 1층,37.5522523,126.917128,110,403,94
407,1914835609,오마이 메이드카페 오마이왕국점,"카페,디저트",어울마당로 92 지하1층,37.5531479,126.9219792,3141,10640,1697
408,1179781827,할리스 합정역점,카페,양화로 36,37.5485489,126.9133544,4118,7329,2810
409,31228952,트래블카페 샬레,테마카페,어울마당로5길 26 1층,37.5494793,126.9192301,196,71,26
410,1415019885,메이드카페 집사카페 카와이 홍대점,"카페,디저트",와우산로14길 4 2층,37.5500505,126.9233766,5443,20878,2003
411,1270396816,더블유오앤,"카페,디저트","잔다리로6길 20-9 1층, B1층",37.5518519,126.920544,4122,15466,3969
412,1883832743,943 킹스크로스,"카페,디저트",양화로16길 24 B1층~4,37.5530051,126.9208167,9122,29224,8432
413,1070440346,라운지 클라리멘토,카페,잔다리로7안길 18 1층,37.5523398,126.9167263,342,1405,261
414,1607766738,투썸플레이스 홍대서교점,카페,월드컵북로 13 1~2층,37.5561234,126.9201169,479,1060,306
415,1708264883,로아프하우스,"카페,디저트",양화로11길 13 1층 로아프 하우스,37.5518417,126.9158143,723,2800,568
416,30830770,제비다방,테마카페,와우산로 24,37.54663,126.923106,232,325,106
417,1049591198,폴 바셋 교보문고 합정점,카페,월드컵로1길 14 딜라이트 스퀘어 B2,37.5497786,126.9123792,5415,5362,1918
418,30847072,파스텔커피웍스 본점,"카페,디저트","성지길 58 1층, 지하1층",37.5462574,126.9126531,579,1068,336
419,1058857466,두두리두팡 망원본점,베이커리,월드컵로23길 19 1층 두두리두팡,37.5569277,126.9078663,3286,11927,2747
420,2046381834,만월다방 한강점,"카페,디저트",토정로 130 5층,37.545058,126.9255201,2658,10435,2588
421,2062121031,교토다방,"카페,디저트",독막로6길 41,37.5461563,126.9171154,1,5,1
422,1582876559,내면의 발견,카페,월드컵북로5길 53,37.556089,126.9160368,513,2196,495
423,1476560900,언플러그드 라운지,"카페,디저트",와우산로29길 15 2층,37.554843,126.9289046,231,708,168
424,1411979102,휩데이박스 합정점,케이크전문,양화로6길 57-24 지하1층 02호,37.5494764,126.9181519,13,59,11
425,1838812143,투니크 유니버스점,"카페,디저트",양화로 78-17 2층,37.5512925,126.9178483,647,1949,506
426,1796133699,푸글렌 서울,"카페,디저트",와우산로 43,37.5483848,126.9228052,385,1164,338
427,1789177874,신이도가,"카페,디저트",잔다리로 20-12 1층 신이도가,37.5513628,126.9209417,1282,3876,1210
428,2065548978,Too late,"카페,디저트",어울마당로 21 1층 101호 Too late,37.5472795,126.9195053,2,10,2
429,1624486282,침니맨션,베이커리,잔다리로6길 14,37.5520157,126.9199555,2594,9803,2512
430,1046300801,소과당 홍대점,"카페,디저트","와우산로23길 48 2층, 3층",37.5549069,126.9236625,1761,6796,1710
431,38521547,토끼굴,"카페,디저트",독막로7길 6 2층,37.5481914,126.9186879,13,,
432,1812952613,루아르 합정,"카페,디저트",성지길 22 1층 루아르,37.5477055,126.9131649,145,460,128
433,1759690653,브릭베이글,베이글,동교로 43-1,37.5529819,126.9071408,947,2034,728
434,1212775640,커넥츠커피 합정,"카페,디저트","성지길 60 1층, 커넥츠커피 합정점",37.5461158,126.9125972,1623,4293,1127
435,37207745,디스코플래닛,"카페,디저트",동교로 144-13 1층 디스코플래닛,37.554625,126.9184662,879,2604,491
436,1185900712,폴리 합정,"카페,디저트",포은로 14,37.5495045,126.9092347,797,3111,768
437,1795383079,카페 로콜라보,테마카페,양화로11길 8 1층 로콜라보,37.5519278,126.9162485,34,145,19
438,13156164,땡스네이쳐카페,카페,홍익로 10 서교푸르지오상가 지하121호,37.553497,126.9238052,935,1374,586
439,1174189847,카페 메틀,"카페,디저트",월드컵로1길 14 딜라이트스퀘어1차 L층 B101호,37.5503074,126.9118724,779,2799,700
440,37837603,도쿄빙수 망원본점,빙수,포은로8길 9 1층,37.5564506,126.9052444,1598,1927,883
441,1085306122,맥심1층카페,"카페,디저트",월드컵북로5가길 22 1층,37.5564933,126.9188904,243,840,192
442,1968041382,라헬의부엌 홍대점,"카페,디저트","와우산로29길 47 1,2층",37.5556936,126.9273613,4542,13395,3855
443,2027592043,몬도커피츄러스 홍대점,"카페,디저트",어울마당로 102 1층,37.5539417,126.9224317,134,467,128
444,1503644539,아벨롭 홍대본점,"카페,디저트",양화로15안길 6 Avelop,37.5544506,126.9188258,3331,12564,3184
445,37915747,카페그랑주,"카페,디저트",홍익로5길 13 동신빌딩 B01 핑크색 정문,37.5541305,126.9214498,1515,2514,944
446,1918610697,카페몬데이,"카페,디저트",독막로15길 13-4 1층,37.5484796,126.9218603,91,247,79
447,1528833676,꾸울과자점,"카페,디저트",와우산로22길 70 102호,37.5494148,126.9241292,1911,6128,1344
448,717568148,32파르페 홍대점,아이스크림,홍익로3길 35 1층 32파르페,37.5528236,126.9216546,270,246,136
449,1831523011,렉터스라운지 홍대,"카페,디저트","와우산로29가길 54-6 지하1층, 지상1층 렉터스라운지",37.5540325,126.9266828,3073,13044,2639
450,1703190567,오퍼 카페,"카페,디저트",홍익로5길 19 오퍼베이커리카페,37.5540294,126.9213147,2192,8530,1983
451,1188631536,투썸플레이스 홍대예술의거리점,카페,와우산로21길 36-3 2~4층 투썸플레이스 홍대예술의거리점,37.552458,126.9218063,3055,4151,1878
452,2041916551,슈퍼프룻,"과일,주스전문점",홍익로 10 101동 107호 슈퍼프룻,37.553762,126.9236938,163,408,112
453,1955747385,주디마리 홍대점,"카페,디저트",홍익로5안길 63 1층,37.552331,126.9201053,2346,8804,2266
454,1772386755,베이글랜드 홍대점,"카페,디저트",와우산로29바길 19 삼이빌딩 1층,37.5554909,126.9259638,15572,57625,14016
455,1239525594,무슈랑 케이크 홍대,"카페,디저트",월드컵북로 24 1층 102호,37.5569922,126.9197038,406,1436,382
456,1376559506,소각커피 홍대본점,"카페,디저트",월드컵북로 24 1층 101호,37.5569362,126.9197705,373,1571,353
457,35708180,설빙 홍대입구역점,빙수,홍익로6길 15 삼주빌딩,37.5553783,126.9227519,6551,10227,4460
458,1735439216,카페 공명 망원책빵,"카페,디저트","월드컵로13길 22-3 지하1층, 1층, 2층",37.5556988,126.9087154,4172,16204,3882
459,1365170000,수택,"카페,디저트",홍익로5길 51,37.5529851,126.920003,355,1183,318
460,1536039877,HEYTEA 홍대점,"카페,디저트",어울마당로 122-1 1층,37.5554549,126.9238618,401,829,329
461,1149377407,투썸플레이스 홍대걷고싶은거리점,카페,어울마당로 109 2~4층,37.5547411,126.9226804,4684,5515,2572
462,1282610058,올라운드커피,"카페,디저트","양화로7길 30 1F, B1F",37.5520647,126.9144871,799,3094,717
463,1921425928,아비앙또,"카페,디저트",잔다리로 30-26 1층 아비앙또 카페,37.5517692,126.920069,919,2817,837
464,2052366625,솔트랩,베이커리,"독막로19길 32 1층 B103,B104호",37.5489744,126.9244826,268,776,216
465,1144382326,명과정 합정점,"카페,디저트",성지길 57 1층 101호,37.5460594,126.912792,398,1523,373
466,38010911,스탠스커피,"카페,디저트",와우산로11길 9 1층,37.5488582,126.9224685,1618,4354,1233
467,1741225396,빈브라더스 커피하우스 서울,카페,"토정로9길 2 6층, 7층",37.5452009,126.9244369,595,2346,537
468,19862370,멜로우,카페,잔다리로 30-11 1층 멜로우,37.5518574,126.919963,558,809,311
469,1214124388,교시커피,"카페,디저트",양화로11길 31 지하1층,37.5523395,126.9150854,148,613,132
470,2095987316,숲터 그로브 허브 망원,"카페,디저트","희우정로12길 39 B1, 1F",37.5541069,126.9051751,853,3594,815
471,1016457790,카페345,"카페,디저트",홍익로2길 7 1층,37.5542319,126.9233598,1490,4612,1381
472,31077554,아티제 메세나폴리스점,카페,양화로 45 메세나폴리스 지하1층 B1121호,37.5514091,126.913947,2942,2733,1045
473,1289183644,볼베르,"카페,디저트",월드컵로 41 2층 VOLVER,37.5529747,126.9118691,3989,16376,3739
474,2061829219,도란도란 홍대입구점,테마카페,양화로16길 30-5 2층 도란도란,37.5527477,126.9212333,4118,14924,4049
475,2033967693,라이프온커피,카페,토정로 98 1층 3호,37.544342,126.9218248,17,69,17
476,1684673523,소울버튼,"카페,디저트",와우산로15길 23 2층,37.5494314,126.9220836,331,809,245
477,1204258006,카카오 바스켓,초콜릿전문점,양화로8길 32-17 5층,37.5494152,126.9156165,201,521,146
478,1903482472,달화채 홍대점,"카페,디저트",와우산로 125 1층,37.5535668,126.9274843,266,1014,240
479,37285935,아날로그가든,카페,동교로 145 1층 아날로그가든,37.5554536,126.9180707,1225,3177,814
480,1413125855,숲길 holzwege,카페,동교로13길 14 1층,37.5551464,126.9133234,118,497,104
481,1302674536,크리스피크림 메세나폴리스점,도넛,양화로 45 메세나폴리스 B150호,37.5508176,126.9138131,4079,5603,2296
482,1753765548,웨인스베이글스 홍대점,베이글,양화로16길 14 1층,37.553375,126.9204113,373,1405,318
483,1842170109,샤이고스트,카페,월드컵로3길 60 101호 102호,37.5499026,126.9095639,30,112,28
484,1571871454,르메드,"카페,디저트",포은로 46 1층,37.5515706,126.9071196,172,570,154
485,2044368370,녹턴,"카페,디저트",양화로11길 32 1층 녹턴,37.5525022,126.915087,228,952,220
486,35993418,이디야커피 홍대청기와점,카페,월드컵북로 7 1층 이디야커피 홍대청기와점,37.5556353,126.9206471,952,1230,470
487,36544206,빌리프커피로스터스,"카페,디저트",양화로11길 50 해동빌딩 1층~지하1층,37.5523005,126.9140322,1790,2642,977
488,2050489579,디단,브런치카페,양화로12길 16-12 1층,37.5514441,126.9184756,114,486,112
489,1673001490,블루로그,"카페,디저트",토정로 27-1 3층,37.5457431,126.9140355,197,445,180
490,1132863024,합정티라미수 합정본점,"카페,디저트",양화로3길 55 지하1층 합정티라미수,37.551367,126.9109718,1965,5738,1459
491,1883924356,이미커피,"카페,디저트",동교로25길 7 1층,37.5574767,126.9219163,695,2145,531
492,36406719,스몰커피,"카페,디저트",포은로 64 1층,37.5528935,126.9065272,150,158,55
493,1903339734,해픈스탠스 인 엄브렐라,카페,와우산로21길 28-10,37.5527288,126.9224525,334,1457,311
494,1619195092,TYPE 한강점,"카페,디저트",토정로 128 서강8경빌딩 5층 TYPE HANGANG,37.5449567,126.9253568,245,738,227
495,1461786894,비캔드,브런치카페,"망원로10길 11-12 1,2층",37.5572259,126.9073816,2220,7684,2163
496,1094566184,카페 꼬모,"카페,디저트",와우산로21길 31-12 1층,37.5519165,126.9218968,502,867,404
497,941188692,투떰즈업,베이커리,희우정로16길 53 1층,37.554922,126.9048319,1815,2941,1154
498,34658234,아오이토리,베이커리,와우산로29길 8 K.C빌딩,37.554751,126.9294621,3858,5143,2042
499,1603751419,로파이,"카페,디저트",와우산로15길 16 1층,37.5497547,126.9223069,75,118,40
500,1239680990,빽다방 홍대거리점,테이크아웃커피,어울마당로 75 1층 1호,37.551803,126.9213335,1163,1724,728
501,1392654075,메가MGC커피 홍대서교점,카페,양화로 116 상연빌딩 1층,37.5537659,126.9200236,2655,4351,1650
502,1292205602,포포브레드,베이커리,동교로18길 13 세원빌딩 1층,37.5545779,126.917093,487,960,324
503,1425934319,우규,이자카야,독막로3길 21 (서교동) 1.5층,37.549323,126.9168511,1528,5415,1485
504,1765323591,토끼다이닝 합정점,요리주점,독막로5길 5 2층,37.5484701,126.9178803,3107,11979,2993
505,1064834738,7번방 홍대점,요리주점,어울마당로 62,37.5506018,126.9214201,5481,19734,5168
506,1732221838,무제서울,이자카야,양화로6길 91 1층,37.5484688,126.919207,1081,2937,703
507,1507105878,매운집 합정점,요리주점,독막로3길 25 1층,37.5495223,126.9169372,1260,4477,1210
508,37397782,든든,요리주점,양화로6길 57-7 1.5층 든든,37.5490191,126.9175228,132,381,102
509,1461990549,홍대그술집,요리주점,어울마당로5길 16 1층,37.5492102,126.9197505,88,408,69
510,1067358364,데스페라도,"맥주,호프",독막로9길 43 2층 전체,37.5501593,126.9205245,367,1639,359
511,1369799475,넨네,이자카야,잔다리로3안길 27 B03호,37.5504721,126.9197798,175,655,148
512,1699175338,노크 홍대직영점,요리주점,잔다리로 11 3-4 층,37.5506087,126.9217968,318,776,223
513,2061332439,로제타,요리주점,어울마당로5길 35 1층,37.5495571,126.9185939,686,798,125
514,1288591441,누룩앤몰트,요리주점,독막로3길 27 1층 1호,37.5495665,126.9170927,57,266,43
515,1658877678,상수소굴,요리주점,독막로14길 24 1층,37.5473694,126.9221918,157,404,100
516,1831433265,나마나마 합정,이자카야,양화로10길 36 지층 1호,37.550362,126.9181362,117,531,106
517,1567681535,아소토,이자카야,독막로2길 34 1층 아소토,37.5471802,126.9142003,688,2119,575
518,2076828877,네스트57 펍앤다이닝,요리주점,"양화로6길 57 2층, 네스트57",37.5488097,126.9174058,372,1643,360
519,1103119923,느와르 합정,요리주점,독막로3길 18 3층 301호,37.5490754,126.9169007,99,460,90
520,1790868230,소리야 노래타운 홍대점,요리주점,와우산로17길 18 2층 3층,37.5503604,126.9219893,152,650,146
521,1860314082,단디,요리주점,독막로7길 45 2층,37.5498461,126.9195854,616,2437,581
522,1307735492,지나리 합정,요리주점,성지3길 55 지1층,37.546295,126.9160026,123,555,92
523,1053460416,유라유라,이자카야,독막로7길 6 1층,37.5481661,126.9186927,532,2162,502
524,1238697645,사카바 주정,이자카야,독막로3길 28-17 102호,37.5497645,126.9177209,114,490,101
525,1482505775,횬지네집 포차,요리주점,와우산로13길 25 반지하,37.5491468,126.9219948,63,245,50
526,1977555196,그놈포차 서울홍대점,요리주점,독막로7길 60 2층,37.5503026,126.9202441,224,943,215
527,1740582107,주도,요리주점,양화로6길 91 2층,37.5484863,126.9192663,530,2266,505
528,1651507835,합정유리,요리주점,양화로6길 99-11 2층,37.548805,126.9200293,449,1907,411
529,1725602455,오키킨토,이자카야,독막로15길 3-13 1층,37.5484098,126.9213363,202,955,130
530,1114382978,슈이키,이자카야,양화로6길 39 2층 201호,37.549031,126.9164056,120,536,67
531,2021893913,춘타운 홍대점1호점,요리주점,잔다리로 10 1층,37.5508643,126.9220549,440,1739,431
532,1121837501,감칠,요리주점,와우산로3길 32 1층,37.5459248,126.9212573,256,1158,239
533,19891346,황포25,요리주점,와우산로17길 24-3 좌측동 1층,37.550427,126.9215261,223,641,164
534,1343324245,만킨펍 홍대점,"맥주,호프",독막로15길 9 2층,37.5482804,126.9220416,41,168,37
535,1256492181,생활맥주 합정역3번출구점,"맥주,호프",독막로3길 20,37.5491681,126.9169935,58,181,58
536,1641004181,포킹94,요리주점,어울마당로 53 2층,37.5499723,126.9208788,174,715,154
537,1129225985,라운지목화 합정관,요리주점,양화로6길 57-12 1층 라운지목화 합정관,37.5490781,126.917816,420,1701,391
538,1339508529,금복주류 홍대점,요리주점,잔다리로 11 2층,37.5505951,126.9218074,1775,6720,1701
539,1812687246,알콜중독,요리주점,어울마당로5길 50 1층 102호,37.5499634,126.9181034,223,1025,213
540,1657851637,SOBEE,요리주점,어울마당로 58 2층,37.5501067,126.9212834,65,305,55
541,2012481662,연플레이스 홍대혼술바 합정점,바(BAR),독막로3길 28-17,37.5497589,126.9176752,369,1413,335
542,2050636677,로얄호프치킨 합정점,"맥주,호프",양화로6길 53 1층,37.5488887,126.9172966,787,2961,752
543,1763615245,구주 홍대,이자카야,와우산로17길 18 1층 구주 홍대,37.5502763,126.9219946,276,1117,257
544,1471043849,술래 상수점,요리주점,독막로15길 3-13 1동 101호,37.5484098,126.9213363,62,294,58
545,1792411728,연화식탁,아시아음식,와우산로17길 11-5 1층,37.5499611,126.9222605,338,1393,326
546,1456505357,금별맥주 홍대점,"맥주,호프",독막로7길 63 1층,37.5506393,126.9201318,918,2124,732
547,1925495916,영업중,"맥주,호프",양화로6길 92 1층,37.5482595,126.9192127,109,393,105
548,1536803774,장미장 합정역점,포장마차,양화로6길 57-10 1층,37.5490105,126.9179513,306,1209,292
549,1173002317,아초바,바(BAR),독막로3길 28 2층 아초바,37.5494532,126.9172867,823,3280,677
550,1917290125,서교포차,요리주점,"잔다리로 5 1층, 2층, 3층",37.5505513,126.9224809,6630,23923,6279
551,1680507868,퇴사당,요리주점,독막로9길 6 B1층 퇴사당,37.5486075,126.9196389,49,211,45
552,1760267682,고엔 합정,일식당,양화로6길 57-16 지층,37.5491824,126.9178578,486,1961,471
553,1113429489,더기와 합정점,한식,독막로3길 25 1층,37.5495714,126.9169059,5999,22681,5810
554,1483735062,약수터,포장마차,독막로2길 12 1층 101호,37.5480401,126.9145827,195,510,143
555,2020968354,테 합정,이자카야,독막로3길 17 2층,37.5492336,126.916773,82,333,80
556,2044800220,도란 혼술바 홍대점,바(BAR),양화로6길 99-5 1층,37.5486166,126.9198293,571,2214,520
557,2024119609,나츠오,이자카야,독막로9길 38 1층 101호,37.5498857,126.9205844,60,270,59
558,33979729,준지의아름다운하루,이자카야,독막로 48 2층,37.5477432,126.9186779,142,284,82
559,2091799827,창달,요리주점,독막로15길 5 지층 3호,37.5481898,126.9218347,37,174,36
560,1140026252,배터리88 홍대,요리주점,와우산로19길 6 1층,37.5513451,126.9227607,4766,18271,4447
561,1195966367,힛미업,테마카페,양화로6길 54 4층,37.5486159,126.9171965,91,429,85
562,2060971223,씬,바(BAR),성지3길 67 1층,37.546257,126.9166553,3,15,3
563,1011218680,화류,이자카야,성지5길 19 1층,37.5462103,126.9139831,898,3692,863
564,2001986297,얼맥당 홍대카페거리점,"맥주,호프",독막로3길 6 1층,37.548637,126.9165532,115,442,102
565,1841211780,슈퍼텅,일식당,토정로3길 17 지하1층,37.546497,126.9142924,87,380,85
566,2083699633,혼술바 모먼트 합정,바(BAR),독막로 23-4 반지층 B02호,37.5486672,126.9162173,76,315,70
567,1296458311,옥상 홍대점,양식,양화로6길 91 5층,37.5484997,126.9192322,95,449,84
568,1869206869,벽돌포차 홍대점,요리주점,와우산로17길 5,37.5500861,126.9226978,1609,5731,1533
569,1213717454,옥 오코노미야끼,일식당,양화로6길 57-13 옥 오코노미야끼,37.5492615,126.9177751,912,3885,832
570,1727431049,미믹홀덤펍 홍대점,"맥주,호프",잔다리로3안길 31 1층,37.5502142,126.9194642,134,496,125
571,1577241482,와인바 블랑루즈 합정,와인,양화로6길 39 2층 202호,37.548969,126.916459,558,2430,512
572,2043450395,바람 혼술바,바(BAR),독막로3길 26 4층,37.549399,126.9171861,252,1104,210
573,37286267,세부인보드카,요리주점,양화로6길 65 2층,37.5487425,126.9177818,1433,5314,1281
574,1484588989,김김포차,포장마차,와우산로15길 49 2층 김김포차,37.5486332,126.9209623,62,215,49
575,1503071445,모양,한식,독막로3길 24-9 1층,37.5492195,126.9173602,511,2175,478
576,1480100507,지하102호 3호점,이자카야,양화로6길 57-22 지하102호,37.549414,126.9180245,189,573,171
577,1638329099,신호등포차 홍대점,요리주점,잔다리로 3 2층,37.5505994,126.9226668,5830,20805,5063
578,1371164952,모라비아,"맥주,호프",독막로8길 15-6 빨간벽돌 주택,37.5469983,126.9182188,53,250,46
579,38277647,무니,이자카야,독막로9길 8 1층 102호,37.5486838,126.9197463,126,179,67
580,32052721,금강산호프,"맥주,호프",성지길 18,37.5479749,126.913265,455,919,260
581,1097062202,바 키안,바(BAR),어울마당로5길 25-6 1층,37.5492833,126.9189157,147,453,107
582,2061932776,담백주점,요리주점,양화로6길 99-11 1층,37.548827,126.9199802,31,141,31
583,1125792665,역전할머니맥주 홍대점,"맥주,호프",어울마당로 55-4 1층,37.5502999,126.920764,1437,2810,1002
584,1941336821,대빵,이자카야,양화로6길 57-20 1층,37.5493411,126.9181811,359,1565,332
585,1821910287,포비 합정,와인,독막로3길 18 4층 포비,37.549024,126.9169212,286,1259,278
586,1302809851,조선시대,요리주점,홍익로3길 44 지하1층,37.5525892,126.9214312,3513,11873,3188
587,38300902,펍트라이브,"맥주,호프",독막로3길 7 지하1층,37.548768,126.916418,252,818,204
588,1059830571,이키,이자카야,성지길 36-20 1층,37.5472468,126.9126542,211,777,175
589,1305041689,유메오뎅 홍대,이자카야,와우산로 75 1층,37.5512368,126.9231081,1627,6480,1598
590,1165128802,유아하,중식당,독막로3길 24-10 1층,37.5490904,126.917354,772,3187,738
591,1540881424,Fringe group seoul,"맥주,호프",양화로6길 79 2층,37.5485581,126.9186787,731,2618,630
592,1824055329,형제상회,포장마차,양화로6길 73 1층 4호 형제상회,37.5485786,126.9183203,240,568,177
593,1918135360,드렁큰정글,"맥주,호프",독막로5길 28 3층(3F),37.5492311,126.9186856,120,547,92
594,1143608874,물레도니,요리주점,"독막로3길 48 1, 2, 3층 물레도니",37.5502199,126.9178669,693,2102,501
595,2032309820,제주 곁 서울혼술바 합정점,바(BAR),독막로3길 24-9 1층,37.5492373,126.9174265,46,194,45
596,2039357598,덤덤혼술바 합정,바(BAR),독막로3길 24-6,37.5491566,126.9172173,113,429,119
597,31786591,치치 상수점,요리주점,독막로 71 1층,37.5479621,126.9213825,192,303,132
598,1360291781,슈퍼방구 홍대점,한식,잔다리로 12 1층,37.5508903,126.9218088,512,1224,406
599,1647322114,문학살롱 초고,바(BAR),독막로2길 30 지하,37.5472285,126.9143536,186,511,150
600,2040031060,야키토리 단,이자카야,양화로8길 32-15 1층 102호,37.5493262,126.9157743,77,325,76
601,1023957785,위드,바(BAR),양화로8길 38 지하1층,37.5491158,126.9166333,157,709,140
602,1068226610,투비,바(BAR),독막로9길 3 1층,37.5486048,126.9194461,226,936,161
603,1807394728,토트,술집,양화로6길 57-21 1층,37.5495604,126.9179946,187,844,101
604,13484470,Motto,바(BAR),독막로3길 24-10 MOTTO,37.5490007,126.9173146,111,281,60
605,1862497419,주문합정,요리주점,토정로 27-1 성우맨션 1.5층,37.5457363,126.9140617,278,1292,211
606,258955099,주무대,요리주점,와우산로3길 32,37.5459093,126.9212047,149,234,84
607,2082654393,공과사 서울혼술바 홍대점,바(BAR),독막로 67-10 1층,37.5482983,126.9208239,145,658,130
608,1022236547,돌포차 Dorrr,요리주점,독막로3길 18 202호,37.5490754,126.9169007,272,961,266
609,37620447,야마뜨,와인,어울마당로5길 25-10 1층,37.5491055,126.9187579,82,106,43
610,2054069005,LP바 낭만세영,바(BAR),양화로6길 87 2층,37.5485025,126.9190784,145,665,128
611,1676623113,브라운스터디,바(BAR),와우산로3길 37,37.545746,126.9209177,42,144,28
612,2035740843,에메랄드,와인,양화로6길 99-9 1층,37.5487544,126.9199386,209,966,183
613,1361535497,한량,요리주점,잔다리로6길 36 1층,37.5522812,126.9212982,1682,5199,1352
614,187701543,호랑이,요리주점,성지3길 23 1층,37.5467275,126.9144286,149,202,81
615,1400716348,레스보스,요리주점,독막로 61-6 지1층,37.5481789,126.9206341,30,77,25
616,1356268861,홍대 교도리,요리주점,와우산로 77 1층,37.5513545,126.9231521,4586,16683,4301
617,2020228120,쉘터,바(BAR),어울마당로5길 29 2층,37.5493884,126.9189609,45,224,30
618,1796992780,힙하디,바(BAR),독막로9길 4 지하1층,37.5485169,126.9195511,116,508,79
619,1002406240,철스뮤직,"맥주,호프",독막로 39 2층,37.5481737,126.91792,55,138,41
620,2096052885,바 그믐,바(BAR),독막로9길 26 1.5층,37.5493583,126.9202303,33,155,28
621,1696136533,리춘시장 합정역점,요리주점,독막로3길 46 1층,37.5501357,126.9177536,277,594,246
622,2026829069,야화혼술바 합정점,바(BAR),양화로6길 99-3 1층,37.5485446,126.9197783,42,180,41
623,38521652,강포차,포장마차,독막로 72 1층,37.5476474,126.9213337,114,151,59
624,2017659226,철이네오뎅 합정점,"오뎅,꼬치",독막로3길 24-6 지층 1호,37.549204,126.9172118,86,327,85
625,1282263314,어리광,요리주점,독막로12길 5 서울시 마포구 상수동 319-3호 1층,37.5474146,126.9200739,114,319,73
626,37743324,페더,바(BAR),독막로15길 13 Feather,37.5483655,126.9220362,169,593,112
627,37808087,와인어클락,와인,독막로7길 26 3층,37.5489456,126.9192664,125,343,73
628,1677897857,Little Cave,와인,독막로4길 9 1층,37.5476743,126.9169997,115,315,82
629,32473194,쿠시무라 상수본점,"일식튀김,꼬치",와우산로3길 13 1층 쿠시무라 상수본점,37.5460194,126.9222975,174,380,110
630,1617402735,하이네스카페바,바(BAR),토정로 35 지하1층 하이네스카페바,37.5456856,126.9148291,99,339,81
631,1996116851,야타이 쇼부,이자카야,독막로3길 23 1층 야타이 쇼부,37.5493835,126.916945,304,1186,293
632,1014971116,호수꼬치 홍대합정점,"오뎅,꼬치",독막로 55 1층,37.5480523,126.9194038,122,259,69
633,2081248370,사부작 SAVUZAK,"맥주,호프",독막로7길 6 2층,37.5481661,126.9186927,65,299,55
635,1118558810,슈츄안꼬치훠궈마라탕,중식당,어울마당로 59 2층,37.5503916,126.9209738,415,908,272
636,34870376,달봉비어,"맥주,호프",어울마당로5길 7 한스빌 1층,37.5489316,126.9200408,297,490,164
637,1819670358,안티플랜,바(BAR),어울마당로2길 13 2층 안티플랜,37.5463002,126.920028,61,126,33
638,1514294010,Urban 3AM,바(BAR),와우산로11길 25 반지층,37.5486577,126.9216645,137,597,88
639,1369811890,이자카야 고도리,일식당,"양화로6길 73 102, 103호",37.5485899,126.9182781,259,1139,257
640,12907660,그문화다방,요리주점,와우산로3길 49 1층,37.5455259,126.920324,643,2619,516
641,1851518660,시바카야 라카세,이자카야,독막로9길 3 1층,37.5485406,126.9194121,80,185,72
642,1040837215,쟈니하우스 홀덤펍,"맥주,호프",독막로7길 63 3층,37.5506141,126.9200335,158,581,89
643,2081699086,저녁놀,포장마차,양화로6길 77 2층,37.5485844,126.9185489,89,370,82
644,1021076782,더쿠포차,포장마차,양화로6길 57-5 지층,37.5489373,126.9174625,128,218,79
645,2034069766,홍대혼술바 버건디,바(BAR),독막로7길 47 4층,37.5499249,126.9196287,68,298,63
646,265934395,훼미리포차,포장마차,어울마당로 55 . 3층,37.5501085,126.9208729,250,329,142
647,1642232876,양화진,요리주점,양화진길 55,37.5462421,126.9121016,47,160,45
648,37803271,구름공방 합정역점,"맥주,호프",독막로3길 8 2층,37.54873,126.9166514,225,404,139
649,1974195601,작소,요리주점,양화로6길 72 2층,37.5484481,126.9181278,57,222,52
650,1236510493,원타코스,"멕시코,남미음식",와우산로11길 9-4 1층 원타코스 (WON TACOS),37.5488683,126.9222375,277,1151,235
651,1104711393,맹금류,바(BAR),토정로 27-1 지1층 101호,37.5457259,126.9140796,200,850,171
652,1755908543,붉은낙타,요리주점,잔다리로 20-11 1층 붉은낙타,37.5513089,126.9207102,2467,9755,2362
653,2036236741,게릴라 혼술바,바(BAR),어울마당로5길 18 지하1층,37.549287,126.9196699,78,351,74
654,37161958,언더그라운드,바(BAR),와우산로17길 19-11 지하 1층 언더그라운드,37.5496754,126.921693,39,76,27
655,2012171662,혼술바 제비 홍대점,바(BAR),양화로6길 99-7 1층,37.5486945,126.9198927,23,107,23
656,1309781106,비랩 홍대점,바(BAR),잔다리로 10 3층,37.5508953,126.9220198,1265,5081,1226
657,1939461559,앵춘,요리주점,독막로 81,37.5479484,126.9224248,335,573,182
658,1273280870,마실랭가이드,한식,독막로3길 28-17 1층,37.5497344,126.9176797,493,743,150
659,2049593585,43번지 혼술바 홍대점,술집,독막로9길 23 1층,37.5494387,126.9199734,3,14,3
660,33876698,펍프리바다727,"맥주,호프",양화로6길 38 3F,37.5487972,126.9162644,151,200,80
661,66272010,옥탑방 부엉이,요리주점,독막로9길 43 3층,37.5501514,126.920489,69,103,35
662,2034347530,나비도꽃이었다 꽃을 떠나기 전에는,술집,와우산로17길 19-9 지하1층,37.5497845,126.9217923,1,5,1
663,1979739010,네비올로 합정,와인,양화로 72 101동 1층 131호 네비올로 합정,37.5507625,126.9168937,348,1462,324
664,1187097823,복달포차 홍대점,요리주점,"잔다리로 8-6 1, 2층",37.5510594,126.9223158,1352,5101,1239
665,17920692,비앤비,바(BAR),독막로3길 6 지하,37.5486426,126.9165528,230,359,132
666,1319111193,블러드앤샌드,바(BAR),와우산로17길 19-11 1층,37.5496603,126.9216448,92,431,87
667,1430462264,주신당 홍대,요리주점,와우산로21길 19-11 2층,37.5518722,126.9228653,931,3957,892
668,1184682249,경복너랑나랑호프 합정점,"맥주,호프",양화로3길 15 1층,37.5496496,126.9115242,281,476,202
669,33758018,아웃닭 홍대점,"치킨,닭강정",와우산로17길 19 1층 아웃닭,37.5500827,126.921927,980,1751,611
670,2028096533,오일부츠 상수점,중식당,독막로14길 4 1층,37.5475507,126.9211427,31,149,27
671,1191230725,수풀림 홍대점,술집,와우산로18길 16 1층,37.5509457,126.9238919,792,2910,688
672,2063882057,홍대 홀덤펍 엠지엠,"맥주,호프",잔다리로 21 2층 홍대 홀덤펍 엠지엠,37.5506309,126.9206881,215,749,114
673,1111599187,히게쯔라 합정,이자카야,양화로1길 42 1층,37.5505646,126.9103705,628,1844,480
674,36561147,리슨,바(BAR),독막로8길 7 삼성빌딩 1층,37.547541,126.9183417,112,277,76
675,2098561155,화려한오두막 홍대점,요리주점,와우산로19길 5 2층,37.5511274,126.9228389,1143,3948,1004
676,1604085821,낙경,요리주점,잔다리로2길 7 1층,37.5515114,126.9204075,456,2123,361
677,1348042731,터주대감,요리주점,어울마당로5길 6,37.5491145,126.9203446,51,106,31
678,1175317489,디껨,요리주점,독막로3길 18 5층,37.5490754,126.9169007,820,3392,785
679,956883495,요리하는 도깨비 오니,요리주점,"어울마당로 75 2층, 3층",37.5518695,126.9213292,1462,5101,1351
680,1150831513,올드락 중독,"맥주,호프",독막로7길 60,37.5503026,126.9202441,145,234,70
681,1745681171,몽스,"맥주,호프",와우산로17길 14 지하1층,37.5502836,126.9222106,22,90,8
682,2047127359,오키도키1호점,한식,와우산로17길 15 2층,37.5500566,126.9221097,110,193,55
683,1048806737,심심해,술집,와우산로13길 49-13 1층 우측(102)호(상수동,37.5481271,126.9214254,13,56,12
684,2073544220,홍대 혼술바 우우,바(BAR),와우산로 39-12 1층,37.5482072,126.9224964,538,2040,418
685,1505306840,수작 합정점,요리주점,독막로7길 26 1층,37.5490094,126.9192469,4771,20016,4349
686,2036422445,타코잇 상수역점,"멕시코,남미음식",와우산로13길 49 1층 타코잇 상수역점,37.5484764,126.9208792,699,2681,676
687,1811586372,짬뽕지존 홍대점,중식당,어울마당로 44-1 1층,37.5489795,126.9208652,2411,8081,2077
688,1271463480,크레파스,아시아음식,와우산로15길 37 지1층 좌측,37.5489604,126.9214497,583,2424,565
689,1554706925,피자네버슬립스 합정상수점,피자,양화로6길 73,37.5486179,126.9182982,3110,7636,2427
690,1998395408,록갈비 합정점,"육류,고기요리",독막로 51 1층 록갈비,37.548062,126.9189896,2287,8479,2080
691,1700009874,연어초밥 상수점,"초밥,롤",와우산로 39-14 지하 1층,37.5482402,126.9223961,353,1355,258
692,1791240561,상수 냉장고,돼지고기구이,와우산로3길 3 시사포커스빌딩 1층 상수 냉장고,37.5461786,126.9227672,695,1368,299
693,1001519106,요코스카 쓰나미 상수점,일식당,와우산로 39-12,37.5482089,126.9225041,317,883,212
694,2027400345,혼술바 고도 홍대 상수점,바(BAR),와우산로 39-14 지하1층 01호,37.5482766,126.9223875,113,358,115
695,1763571061,인생국밥,한식,독막로15길 9 1층,37.548284,126.9220804,149,646,133
696,18341255,또바기치킨 상수홍대점,"치킨,닭강정",와우산로 27,37.5469334,126.9228113,497,705,224
697,1881560133,비스트로사랑방,양식,"와우산로15길 40 BISTRO 사랑방 , 2층",37.5489875,126.9212055,3704,12522,3290
698,1957840287,찜이로닭 상수본점,한식,와우산로 39-21 지1층 좌측호,37.5481634,126.9221649,99,405,95
699,1198014242,인솔커피 상수점,"카페,디저트",독막로18길 16 1층 인솔커피 상수점,37.5471179,126.9235498,585,1639,397
700,1589729484,동대문엽기떡볶이 상수역점,분식,어울마당로 42 1층,37.5487503,126.9206998,249,509,215
701,1007952652,치어하우스,"맥주,호프",와우산로11길 9-11 1층,37.5484274,126.9224548,117,506,107
702,37192534,수지앤파스타,양식,독막로15길 3-18 지하 1층,37.548704,126.9212976,1006,2583,751
703,1773180579,펠리칸카페,"카페,디저트",독막로14길 27,37.5474793,126.9224169,745,2463,570
704,1448176164,에그드랍 상수역점,샌드위치,독막로 77,37.547908,126.9220662,779,706,215
705,36864490,스타벅스 상수역점,카페,독막로 88 (상수동),37.5474817,126.9232157,4075,4431,1599
706,1792401975,테라커피 상수점,카페,독막로 65 1. 2호,37.5479681,126.9206956,207,357,103
707,1017344816,한석화,한식,독막로15길 5 B-1 102호,37.5481673,126.9217842,109,238,56
708,1498186485,합정 냉장고,돼지고기구이,양화로6길 99-10 1층,37.5486877,126.9201047,1602,5714,1434
709,1442971077,야키토리 이크,이자카야,와우산로15길 33 1층,37.5490529,126.9216267,577,2488,541
710,1716494686,봉구가래떡볶이 홍대점,분식,와우산로 51 1층,37.5490882,126.9228931,972,3490,878
711,2054981741,더할랄오빠,샌드위치,와우산로 41-1 1층,37.5482307,126.922853,14,35,14
712,2004524675,계판의 밤 홍대점,요리주점,독막로7길 27 1층 2호,37.5491273,126.9191386,1128,4604,1030
713,1752054642,마라이장원 서교점,마라탕,어울마당로 35 1층 1호,37.5485119,126.920213,557,2417,502
714,1582156432,바코주막,요리주점,독막로7길 27 1층,37.5490882,126.9191174,625,2504,586
715,2017862452,유사길 혼술바 홍대,바(BAR),와우산로 39-8 2층,37.5481763,126.9226475,234,896,219
716,1800338473,브렛피자,피자,와우산로 29-8 1층,37.5473349,126.9224942,223,478,147
717,1924669168,고수포차 본점,한식,양화로6길 67 2층,37.5486962,126.9179695,101,338,83
718,37649162,필참치,생선회,양화로6길 54,37.5486448,126.9171649,291,561,148
719,1696708116,호박꽃 홍대점,일식당,와우산로17길 19-24 1층,37.5491995,126.9213125,441,1976,371
720,1068155109,서담해물,"해물,생선요리",독막로15길 3-7 이현S 지1층,37.54828,126.921534,171,624,155
721,1403717301,KFC 상수역,햄버거,와우산로 48 1층,37.5485046,126.9232087,404,742,231
722,11690046,파리바게뜨 상수점,베이커리,와우산로 40 상수역2번출구 앞,37.5479529,126.9231686,1931,1841,628
723,1949024937,pancake cafe 번트 오렌지,브런치카페,독막로6길 27 1층,37.5467384,126.9171719,290,981,236
724,33626741,히메시야,일식당,독막로15길 3-18 지층 히메시야,37.5486745,126.9212262,1175,1765,651
725,2097747351,우기식당 바다점 합정점,생선회,독막로3길 18 1층 102호,37.5490754,126.9169007,579,2274,561
726,36314730,더한쭈꾸미 홍대본점,주꾸미요리,양화로6길 48 1층,37.5487217,126.9168328,864,1626,576
727,1518389797,피코,요리주점,독막로9길 14 2층,37.548965,126.9199038,336,1574,303
728,33237660,구스토타코,"멕시코,남미음식",와우산로 41,37.5481419,126.9227917,590,914,369
729,2026495528,순대고집 상수역점,"순대,순댓국",독막로 86 1층,37.5475124,126.9227994,57,182,37
730,1117566105,메가MGC커피 상수역점,카페,와우산로 50,37.5488177,126.9231967,725,1194,352
731,2003374461,벱코이,베트남음식,양화로6길 73 2층,37.5486179,126.9182982,120,519,119
732,1266411866,몽주막,요리주점,독막로9길 12 1층 몽주막,37.5488474,126.9198294,1420,5432,1377
733,2012797548,다운타우너 상수점,햄버거,독막로 85 1층,37.5479429,126.9227585,329,1122,308
734,36369666,회뜰때까지,생선회,독막로 74 2층,37.5476169,126.9216214,2832,11444,2671
735,1540433306,텐무스봉봉 나베모토야,일식당,독막로 46 1층,37.5477508,126.9184538,142,502,118
736,1810046137,재원미경,요리주점,와우산로3길 6 1층,37.5462617,126.922551,135,609,129
737,2005170034,나혼샤,샤브샤브,독막로 42 1층,37.5478836,126.917775,119,485,109
738,20272174,비사벌전주콩나물국밥 합정점,국밥,독막로 35,37.548279,126.917489,1051,1377,481
739,1955569180,나들목,요리주점,독막로14길 31 2층,37.5474609,126.9225491,23,64,21
740,21791179,아사쿠사 예술집,이자카야,와우산로 27 지하 예술집,37.5469231,126.9227793,66,298,52
741,1349290845,비스트로해선,"해물,생선요리",독막로 76-1 1층 4호,37.5475915,126.9218325,122,373,105
742,33211245,달리,요리주점,양화로6길 86 2층,37.5482761,126.9188718,504,1612,397
743,2055945670,파슬리,이탈리아음식,독막로14길 32 이현h빌딩1층,37.5473367,126.9226842,134,605,105
744,36266067,야키토리 쿠이신보 합정점,이자카야,양화로6길 38 2층,37.5487972,126.9162644,613,1053,384
745,1747896051,오토김밥 상수본점,분식,와우산로10길 3,37.5481159,126.923146,143,327,97
746,37392034,써브웨이 상수역점,샌드위치,와우산로 44 1층,37.5483263,126.923155,1183,1321,465
747,1086548334,마담풍천 합정,"장어,먹장어요리",독막로6길 8 1층 마담풍천,37.5476035,126.9174021,182,685,161
748,1704485516,이쪽 김치삼겹살,"육류,고기요리",독막로3길 20 지하 1층,37.5492023,126.9169637,284,756,194
749,1324497068,두레박 합정,"곱창,막창,양",독막로8길 7 1층,37.5475866,126.9183651,335,1357,311
750,33972707,버들골이야기 상수점,포장마차,독막로 84,37.5476078,126.9226661,280,377,155
751,1994262966,미도사와 홍대상수점,이자카야,독막로 98 상가동 1층 103호,37.5474842,126.9243035,637,2650,483
752,1279284497,미분당 합정점,베트남음식,독막로 39 1층,37.5481632,126.9179269,1572,2288,711
753,1484144458,모테나츠 홍대점,돈가스,어울마당로5길 7 2층,37.5489115,126.9200274,547,2100,444
754,1161569632,염돈,"육류,고기요리",성지3길 55 지층 오른쪽호,37.546256,126.916039,250,1062,203
755,1019741955,도끼네,한식,어울마당로5길 6,37.5491034,126.9203286,72,182,34
756,1554559151,I'mso,양식,양화로6길 99-5 지층,37.5485914,126.9198757,107,478,95
757,1723927841,서울진,한식,와우산로 29 1층,37.5471681,126.9228427,105,298,65
758,1999761259,윤슬,요리주점,독막로4길 9 1층,37.547696,126.9169454,142,429,118
759,36868834,츄리츄리,이탈리아음식,독막로15길 3-13 2층,37.5484091,126.9213509,80,126,38
760,37943789,코리아식당 홍대점,한식,독막로 54 1층 코리아식당,37.5477397,126.9192681,714,1087,303
761,1005475707,샌디 빌리지,샌드위치,와우산로7길 6 1층 101호,37.5471833,126.9226781,1221,4781,801
762,35781433,연우김밥,김밥,와우산로 29 102호,37.5471107,126.9228407,1224,1718,508
763,1143758312,샤브로21 상수,샤브샤브,와우산로15길 49,37.548657,126.9209698,665,2515,521
764,13397564,파파존스 홍대점,피자,독막로 93 2층,37.5479133,126.9237492,148,97,47
765,2001239367,목동만복순대국,"순대,순댓국",양화로6길 102,37.5482716,126.919858,9,26,7
766,1524814979,폴폴식당 합정점,한식,독막로6길 16 1층,37.5473708,126.9173209,144,584,91
767,1224693248,금복식당,일식당,독막로14길 24 b1f,37.5473842,126.9221953,341,640,198
768,35637834,화규,"육류,고기요리",양화로6길 57-7 화규,37.5489922,126.9175767,599,1225,298
769,1996887120,empty plate,이탈리아음식,와우산로11길 9-8 1층 empty plate,37.5486056,126.9223177,533,1654,348
770,18779198,정가네정육식당,정육식당,독막로12길 5,37.5474333,126.9200875,119,155,53
771,1508371909,봉선화빛,일식당,성지3길 60 1층,37.5461332,126.9161502,541,1791,485
772,1339845567,도란,요리주점,독막로 34 1층 합정술집도란,37.548043,126.9171288,216,976,214
773,37405553,상수동 교자상,돼지고기구이,와우산로 39-4 상수동 교자상,37.5480931,126.9226444,824,2603,639
774,1201223411,전다운전,"전,빈대떡",와우산로11길 9-7 1층 전다운전,37.5486237,126.9224137,31,115,27
775,1623626515,바이바이베이비,양식,독막로15길 3-12 1층 101호,37.5484546,126.9215562,863,3674,820
776,963900956,외양간,"육류,고기요리",독막로18길 12 1층 외양간,37.5472285,126.9237771,334,966,189
777,1210273017,아티장 깔조네버거 홍대본점,햄버거,독막로19길 45-4 1층 아티장 깔조네버거 홍대본점,37.5489063,126.923394,405,662,150
778,38010129,클럽바리스타,카페,독막로 83,37.5478703,126.9226372,68,69,26
779,1691576731,투다리 상수점,"오뎅,꼬치",와우산로 30,37.5471794,126.9231321,104,165,80
780,1927541252,움버거앤윙스 상수역점,햄버거,독막로 68 1층 101호,37.547618,126.9209112,41,160,35
781,1515843701,매머드익스프레스상수역점,카페,와우산로 39 1층,37.5480542,126.9228497,169,306,109
782,1869551314,네코노유부 상수본점,한식,와우산로13길 49-11 반지층,37.5482298,126.9213118,935,3689,827
783,2092836736,바나나하루키 상수점,"카페,디저트",독막로19길 42 1층,37.5490436,126.9239112,10,43,10
784,1912389737,세모식당,한식,와우산로3길 16 104호,37.5461547,126.9222709,213,689,168
785,34349433,초밥맛짱,"초밥,롤",독막로8길 12 합정동빌딩,37.547383,126.917974,269,498,125
786,2028611811,쇼콜라띠에,양식,어울마당로 33 제지1층 제비101호,37.5482291,126.9199593,11,44,6
787,38404891,꽃피는고기,"육류,고기요리",와우산로13길 49-3 1층,37.5485342,126.9210255,3092,10932,2459
788,1165714590,슌노오뎅 상수,이자카야,와우산로 22 1층 좌측,37.5463704,126.9231595,99,376,86
789,2075403534,이태원 숙이네닭발 상수점,닭발,와우산로 30,37.5471299,126.9231361,12,50,12
790,1068138683,두옹즈 젤라또,아이스크림,독막로 70 1층 두옹즈,37.5476574,126.9212766,410,1404,356
791,1836516567,어나더즈베이크샵,"카페,디저트",독막로19길 40 1층 101호,37.5489763,126.9240588,161,564,145
792,2061461663,레이브 에스프레소 바 상수,카페,독막로19길 43 1층 우측호,37.5489194,126.9237589,33,130,20
793,1355531020,루케이크,케이크전문,독막로 90 4층,37.5475548,126.9234144,5,,
794,38643309,톤앤매너,카페,와우산로29가길 13 2층 톤앤매너,37.554302,126.9287165,745,1040,397
795,2069555340,차백도 홍대1호점,차,양화로18안길 8 1층,37.5566286,126.9250089,300,762,261
796,1724221328,마지텐시 메이드카페,라이브카페,와우산로17길 24 2층,37.5502986,126.9216382,1915,6935,842
797,18779784,스타벅스 홍대삼거리점,카페,와우산로 64 (상수동),37.5501938,126.9232117,4159,3779,1796
798,1855763938,아네모네시 케이크 연남,"카페,디저트",동교로 212-22 1층,37.5592408,126.9243575,628,2562,599
799,1995828622,필로베이커리,카페,홍익로2길 27-22 2층,37.5555542,126.9244576,792,2457,615
800,1260869063,조블라 홍대점,"카페,디저트",어울마당로 136-10 1층,37.5557301,126.9251486,2146,8610,2074
801,1895946014,메가MGC커피 광흥창역점,카페,"서강로 55 2단지 상가 101호, 102호",37.5481235,126.9313423,1901,3377,733
802,2059439278,오르타 저택,테마카페,어울마당로 49 3층,37.5495694,126.9206673,115,447,90
803,1946521861,도덕과 규범,"카페,디저트",독막로19길 32 1층,37.5488743,126.924426,162,484,127
804,1100366331,커피덕,"카페,디저트",월드컵북로2길 37 커피덕,37.5568927,126.9226682,504,825,297
805,2017061056,단석가 찰보리 소금빵 연남점,베이커리,양화로23길 10 단석가 찰보리 소금빵 연남점,37.5589698,126.9255517,1938,5416,1815
806,1080995975,키친205 홍대점,"카페,디저트",와우산로 101 1층,37.5532299,126.9248559,1290,3215,1165
807,2009910527,메이드카페 큐,"카페,디저트",어울마당로5길 7 4층,37.5489115,126.9200274,0,,
808,2010882407,데뷔탕트,카페,와우산로29나길 13-6,37.5544012,126.928258,154,581,68
809,1177635383,페르마타,"카페,디저트",어울마당로3길 11,37.547236,126.9189388,26,31,12
810,1249889236,베리블리스,"카페,디저트",와우산로27길 20 1층.,37.554271,126.9273385,3789,15107,3713
811,1005404756,프랑제리 피어 신촌점,베이커리,서강로 75-16 이랜드 PEER 신촌 로비층,37.5501269,126.9317881,4048,9270,1897
812,2008502114,틸트,카페,연희로1길 10 지1층,37.5597758,126.9259674,130,532,92
813,1908776850,말릭커피,"카페,디저트",와우산로29바길 20 반지층 카페 말릭,37.5555292,126.9257122,402,1128,312
814,11739057,커피빈 홍대역점,카페,홍익로6길 26,37.555482,126.92325,3461,4042,1770
815,1101444848,카페 드 래빗,"카페,디저트",동교로29길 10 1층-4층,37.5611103,126.9239091,3784,14032,3676
816,1148603793,공미학 마포홍대점,"카페,디저트",양화로 162 카카오프렌즈 3층,37.556431,126.9238845,4085,13273,3808
817,1627890320,카페 플로라운지,카페,"양화로18안길 26 1층, 2층, 3층",37.5568684,126.9259727,2366,8876,2176
818,2027013120,백도어,브런치카페,"와우산로22길 34 1, 2층",37.5510227,126.9241748,44,175,43
819,31531049,레드플랜트 합정본점,"카페,디저트",양화로7길 6 레드플랜트,37.5512177,126.9153164,854,1260,441
820,2092230638,올루올루 홍대점,"카페,디저트",어울마당로 114 2층,37.5548212,126.9231973,907,3170,834
821,1213537628,더그릭베어 홍대상수점,"카페,디저트",독막로 105,37.5478788,126.9252613,444,1460,362
822,1845951423,리밀커피,"카페,디저트",동교로22길 21 1층,37.5546062,126.9186736,1427,4532,1134
823,37495236,스타벅스 서교동사거리점,카페,양화로 105 (서교동),37.553376,126.918564,4892,5262,2016
824,1818598459,트라이브 홍대점,"카페,디저트",어울마당로 100-12 지1층,37.5535722,126.9225386,435,1586,402
825,1751254128,훌리건 커피,"카페,디저트",와우산로29바길 11-5 1층,37.5557157,126.9263659,1539,6120,1492
826,1745771292,히트커피로스터스 서교,"카페,디저트",동교로 146 관양빌딩 1층 카페,37.5552656,126.9183238,1249,3260,950
827,1419188474,엔제리너스 L7홍대점,카페,"양화로 141 1, 2F 엔제리너스 L7홍대점",37.5557046,126.9217763,2049,5325,1358
828,1840704037,시타커피로스터스,"카페,디저트",월드컵로8길 40 1층,37.5533033,126.9144536,95,413,75
829,1739158102,복숭아꽃,"카페,디저트",양화로6길 99-5,37.5486166,126.9198293,171,260,119
830,1476951730,스타벅스 홍대입구역사거리R점,카페,양화로 125 (서교동),37.554636,126.92036,6975,7400,3047
831,38282260,터틀힙 연남,"카페,디저트",연남로1길 44 1층 터틀힙,37.5598114,126.920694,4440,14993,4136
832,1640370826,빙츄르 홍대점,빙수,홍익로2길 13 2층,37.5543466,126.9236517,823,2308,759
833,1176845784,카페 공명 연남점,"카페,디저트",연희로 11 1층 카페 공명 연남,37.5600309,126.9264344,11351,38291,9663
834,1755232848,마인드 비,"카페,디저트",양화로15길 20 1층,37.5547931,126.9190537,416,1261,231
835,40960869,커피빈 홍대역8번출구점,카페,양화로18안길 7,37.5567921,126.9249913,1449,1755,837
836,2060839160,홍대과일,카페,와우산로22길 70 지1층,37.5494253,126.9241129,20,91,20
837,21552974,공차 홍대점,차,어울마당로 114 1층 공차,37.5548315,126.9231759,2153,1800,1062
838,767562269,메가MGC커피 홍대입구역점,카페,홍익로6길 48,37.5562112,126.9242088,6525,7423,2945
839,1172120125,충무공 커피바,"카페,디저트",동교로 181-6 1층,37.557094,126.9216262,1103,4041,993
840,2046356378,런드리고아파트,"카페,디저트",독막로19길 32 런드리고아파트,37.5489738,126.9244769,70,282,65
841,1131466791,헤이스위티 홍대점,"카페,디저트",월드컵북로1길 18 1층,37.5550669,126.9202813,110,397,94
842,1158294547,아이덴티티커피랩,"카페,디저트",동교로 139 1층 아이덴티티커피랩,37.555359,126.9174727,184,563,129
843,1565909156,셉트,브런치카페,"양화로11길 41 1층, 지하1층(이벤트 공간)",37.5522398,126.9145026,131,447,128
844,1405043935,할리스 홍대역2번출구점,카페,동교로 200 1-3층,37.5577946,126.9231028,4533,6377,2372
845,1723496697,오버트 합정,"카페,디저트",잔다리로 43 1층,37.5520252,126.9187144,424,971,357
846,1383354652,누 로스팅 하우스,"카페,디저트",동교로22길 19 1층,37.5547032,126.9188695,200,707,171
847,1465557879,소림커피,"카페,디저트",월드컵북로5가길 31 1층,37.556237,126.9194443,401,863,117
848,1399342406,블루보틀 홍대 카페,"카페,디저트",양화로 130 라이즈호텔 1층,37.5545221,126.9212543,597,1319,522
849,1179865817,메가MGC커피 홍대정문점,카페,와우산로 100,37.552918,126.9247063,609,1116,316
850,2042855374,카페누야스,"카페,디저트",독막로22길 1-18,37.5469392,126.9299872,11,54,11
851,33118849,카페 가비애,"카페,디저트",와우산로 147-1 1층과 2층,37.5544505,126.9295836,1521,2231,595
852,1022165531,할리스 홍대거리점,카페,어울마당로 76-1 2~4층,37.5517913,126.9216513,1533,2506,1142
853,1848488870,발코니가든,"카페,디저트",어울마당로 155-1 4층,37.5569061,126.927123,3610,11180,3059
854,30961681,스타벅스 합정메세나몰점,카페,"양화로 45 (서교동, 메세나폴리스)",37.5502865,126.9137097,4353,4627,1725
855,1850443544,쿠리노키제빵,베이커리,동교로12안길 23 1층 쿠리노키 제빵,37.5541601,126.9137029,1497,1996,675
856,38233925,스타벅스 합정점,카페,"월드컵로1길 14 (합정동) 마포한강푸르지오 110, 111, 112-2",37.5499383,126.9126841,6162,5222,2092
857,1180827154,콘드,"카페,디저트",월드컵로3길 32 2층,37.550404,126.9109699,345,1255,333
858,1499660608,후쿠란 상수본점,일식당,"와우산로3안길 2 1층, 2층 후쿠란 상수본점",37.5463462,126.9227106,1722,7074,1475
859,2075454568,문래한잔 혼술바 서울 홍대점,바(BAR),와우산로 39-14 1층 102호,37.5482562,126.9223898,301,1060,233
860,1561079949,술잔코드 합정,요리주점,"어울마당로5길 47 2층, 3층",37.5497971,126.9181316,367,1383,323
861,2053539439,맷집,요리주점,와우산로17길 19-17 1층,37.549433,126.9216024,496,1972,467
862,1436899576,이주막,요리주점,양화로6길 57-22 지층 102호,37.5493957,126.9180069,1200,4775,1165
863,2066411889,포차카야 합정점,요리주점,독막로3길 38 지층2호,37.5498399,126.9175751,424,1626,421
864,1231095770,MANDOO BAR,요리주점,어울마당로 55-2 2층,37.5502891,126.9208799,1076,4567,975
865,1353029374,루프탑어반비치,요리주점,독막로9길 38 6층,37.5498748,126.9206039,347,922,241
866,1402980627,낙원포차 홍대점,요리주점,와우산로17길 19-22 1층,37.549374,126.9213557,783,3136,715
867,1023342470,나베공방 합정,이자카야,양화로6길 57-24,37.5494579,126.9181333,595,2384,507
868,2083903348,오마주,요리주점,독막로3길 29 1층 오마주,37.5496443,126.9171745,1133,4601,1088
869,1949915733,색다른한잔,"맥주,호프",독막로2길 35 1층 색다른한잔,37.5470338,126.9144911,454,1260,339
870,1714636425,정리의밤,요리주점,잔다리로3안길 27 정리의밤,37.5503731,126.9198389,352,1512,306
871,1771272316,동백상회 합정,요리주점,양화로6길 57-24 제이투빌딩 지1층 B01호,37.5495152,126.9181022,546,2225,526
872,1465119307,그늘 합정본점,요리주점,독막로3길 33-3 지하 1층 그늘,37.5498361,126.9171676,1493,6071,1445
873,2014346392,상수한주막,요리주점,독막로 70 1층 101호,37.5476488,126.9212944,32,156,29
874,1106867398,선비다이닝 합정점,요리주점,독막로3길 29 2층,37.5496602,126.9171363,1623,6088,1570
875,1085229767,상수리,바(BAR),독막로 86 목원빌딩 지층 bar 상수리,37.547488,126.9227618,78,192,56
876,1976963916,봉효봉,술집,와우산로13길 31 1층,37.5488783,126.9216715,3,14,3
877,2051098687,푸줏간살롱,한식,독막로 77 1층,37.5479355,126.9221025,13,63,13
878,1859342086,상수음반,요리주점,와우산로11길 21 1층 좌측호,37.5487691,126.9217918,48,220,29
879,1457515212,와인바& 카페 라스플라미아 상수,와인,와우산로15길 50 2층,37.5487808,126.9208335,357,1552,296
880,38010032,별밤,바(BAR),어울마당로 39,37.5487482,126.9203028,56,114,35
881,1419157901,올드타운 홍대 직영점,요리주점,독막로3길 35 2층 올드타운,37.5498611,126.9173197,410,1345,340
882,1303627391,나바호,요리주점,독막로3길 28 지하1층 나바호,37.5494291,126.917304,101,480,86
883,1809703762,심야식당 흠스홈,술집,독막로15길 5 건물 왼편 흠스홈,37.5482001,126.9217777,55,237,32
884,2079090699,모그메탈바,바(BAR),독막로15길 3-3 지1층 B01호,37.5480734,126.9216752,4,20,4
885,13111012,JASE,요리주점,와우산로19길 6-11 2층,37.551742,126.92285,575,1553,438
886,2087114582,리빙 스테레오,바(BAR),어울마당로 34 2층,37.5481774,126.9204435,16,74,16
887,1112305560,호요 홍대점,이자카야,와우산로21길 20-11 1층,37.5527696,126.9227303,1117,4820,1088
888,2065517014,게판,요리주점,잔다리로 6 1층,37.5508662,126.9225703,374,1378,363
889,2028807710,더 마스카니,바(BAR),와우산로15길 29 지층,37.5491479,126.9217704,1,3,1
890,1543297676,새벽,요리주점,"어울마당로 123 ,1층 새벽",37.5556124,126.9236325,4322,15071,4106
891,1060303825,므마서울 바앤다이닝 홍대,요리주점,잔다리로 30-18 지1층,37.5516239,126.9200546,630,2895,285
892,2037769643,더쿠포차,포장마차,"독막로 73-1 . 지1층, 1층 좌측",37.547953,126.9215909,5,21,5
893,1800308382,인간실격,바(BAR),와우산로3길 8 1층 101호,37.5462023,126.9225064,11,46,11
894,1298505160,타로야,이자카야,와우산로 50 2층,37.5488483,126.9232311,123,317,86
895,1283269224,서플라이디팟,요리주점,잔다리로 4 2층 서플라이디팟,37.5510098,126.9227118,1269,4497,1073
896,2009636838,당나발포차 홍대점,요리주점,잔다리로 4 2층,37.551013,126.9227075,148,541,145
897,1149833695,타코야오,이자카야,독막로 82 1층,37.5475944,126.9224796,180,745,172
898,1979591372,노라바라룸술집,요리주점,와우산로21길 20-5 지하1층,37.5525996,126.9227453,309,1055,265
899,1981792090,시청각 상수,"맥주,호프",와우산로 28 1층 2호,37.5469401,126.9231097,114,509,100
900,2026405874,팔로우 홍대본점,술집,"와우산로 67 지하1층, 지하2층",37.5505511,126.9228566,133,523,111
901,2032875845,야키토리 이유,이자카야,잔다리로 20-13 지1층,37.551411,126.9207184,211,895,208
902,1977765653,이세상괜한걱정,바(BAR),독막로 96 지하1층,37.5475455,126.9240646,14,65,14
903,1037051516,오사카데스 서울합정점,이자카야,"양화로6길 57-7 지1층 오른쪽,B02호 전체",37.5490191,126.9175228,18,71,17
904,1860035901,지평선,요리주점,토정로3길 17 1.5층,37.5464861,126.9143473,41,190,40
905,1193126613,물물,바(BAR),와우산로11길 9-8 2층,37.548554,126.9223231,112,518,75
906,2076363783,한사발포차 홍대점,요리주점,와우산로 76 1층 한사발포차,37.5511339,126.9234743,460,1641,445
907,1579670948,오토노,와인,와우산로 28 1층,37.5469928,126.9230997,174,746,123
908,1743484915,추파 홍대점,요리주점,홍익로3길 44 4층,37.5525266,126.9214107,267,1143,258
909,1165597556,한월 홍대,요리주점,홍익로 3-3 2층 한월,37.5528831,126.9237285,432,1830,406
910,1570604636,소금과다시마,이자카야,잔다리로7길 38 이막빌딩 1층,37.5534715,126.9158663,184,589,149
911,1257052602,디오크,와인,양화로6길 99 2층,37.5484386,126.9197114,122,560,117
912,1918450199,크로우,바(BAR),와우산로 39-6 1층,37.5481246,126.9225653,155,629,73
913,2047879472,Lester Burnham,바(BAR),와우산로10길 29 (상수동),37.548474,126.9241261,17,83,17
914,37663339,감술선생 홍대점,요리주점,양화로6길 57-5 1층,37.5489441,126.9174688,113,154,64
915,1995658436,토리야 참피온,이자카야,동교로 98 1층,37.5543524,126.9129649,1262,5182,1077
916,36680474,바울프,술집,독막로 31-3 1층,37.5485213,126.9169353,61,121,32
917,1568802813,미야비 하나레,이자카야,월드컵로3길 31-7 2층,37.5500168,126.9110624,519,1153,280
918,1797246297,노어,와인,와우산로 39-8 2F 노어,37.5481763,126.9226475,181,731,171
919,1266624149,시장을여는사람들 홍대점,요리주점,잔다리로 5-1 2층,37.5505526,126.9223103,2967,11507,2775
920,1290579973,Books & Bitters,바(BAR),와우산로13길 49-13 지층 B101호,37.548157,126.921432,3,15,3
921,350506907,Vineworks Korea,와인,독막로8길 6 7층,37.547632,126.9180058,1,,
922,2086022693,나스,요리주점,와우산로19길 9 1층,37.5511831,126.9226618,741,3136,694
923,1019051610,요아케,이자카야,독막로15길 16 2층 요아케,37.5484184,126.9221604,99,429,92
924,1205779129,토리키조쿠 홍대본점,이자카야,어울마당로 102 2층,37.5539135,126.9224622,131,415,107
925,1105910635,카사블랑코,"맥주,호프",양화로1길 29 1층,37.5500222,126.9103609,348,822,239
926,37286386,카에루,이자카야,양화로1길 31 우진빌딩,37.5501705,126.9103267,288,536,162
927,1287531984,노래타운 파레스 홍대점,요리주점,홍익로 29 지하1층 파레스 노래타운,37.5545282,126.9216635,700,2624,691
928,1442288096,네포,바(BAR),독막로15길 3-11 1층,37.5483761,126.9214216,101,454,88
929,1566215835,작심,이자카야,와우산로 72 2층,37.5508397,126.9233306,689,2672,661
930,1237117096,오드키치맨션,바(BAR),독막로3길 8 지하1층,37.5487325,126.9166594,18,80,18
931,1370899473,이랏샤이마세,이자카야,독막로9길 3,37.5485776,126.9194183,4,11,4
932,1927088383,홍대 노래타운 유앤미,유흥주점,홍익로5길 25 지하1층,37.5537742,126.9210701,1001,3881,920
933,1871941720,타테이와,이자카야,월드컵로3길 31-6 201호,37.5501202,126.9108277,348,1423,300
934,1347013730,희우 합정,이자카야,포은로2나길 44 지층 좌측호,37.5504579,126.9097141,164,648,152
935,1079945930,슈퍼스타스타디움,"맥주,호프",독막로7길 23 지하1층,37.5489983,126.9189534,11,54,7
936,471789694,Ms오뎅바,술집,월드컵로1길 52,37.5490972,126.9101978,238,487,147
937,1426163982,슬오라,요리주점,포은로 14 1층,37.5494297,126.9093506,142,641,116
938,1762809074,수월,요리주점,월드컵로7길 27-11 1층,37.5523087,126.9101327,354,1535,257
939,1408884866,심야식당밤,이자카야,와우산로29바길 16 심야식당밤,37.5557554,126.9259368,2300,8862,2188
940,1679887858,머쉬,와인,독막로15길 9 . 3층(상수동),37.5482391,126.922036,58,265,56
941,36097869,라멘트럭 상수본점,일본식라면,독막로14길 31 1층 라멘트럭,37.5474679,126.9226481,6786,20431,5283
942,1654577204,홍대공감,일식당,와우산로17길 10 2F,37.5503152,126.9224743,2284,7270,2069
943,32779391,김덕후의곱창조 홍대본점,"곱창,막창,양",와우산로 51-9 1층,37.5492213,126.9225166,1965,5354,1420
944,1616124276,가든포에트,양식,와우산로14길 12 가든 포에트,37.5502111,126.9237118,2610,10290,2456
945,1660932832,시호,"술집, 바(BAR)",서울특별시 마포구 와우산로1길 7 1층 시호,37.5456163,126.922463,49,92,21
946,1255682606,Zyo,바(BAR),와우산로13길 9-4 지1층 102호,37.549432,126.9225905,87,337,76
947,1015887536,더 할랄 핏짜 홍대,피자,와우산로 66 2층,37.5503995,126.9232723,1183,4175,1130
948,2033650088,키도 키도,요리주점,와우산로 15-7 1층,37.5459559,126.9224613,23,109,23
949,55217218,코테츠,일식당,와우산로3길 16 1층,37.5460873,126.9219553,706,1417,521
950,1527829399,시선 홍대점,이자카야,"와우산로17길 6 1층, 2층",37.5502349,126.9226745,25,88,24
951,1095750483,Poke all day 포케&샐러드 상수점,"다이어트,샐러드",와우산로 62 2층,37.5499406,126.9232368,608,2286,435
952,1288621176,김밥천국 홍대본점,분식,어울마당로 55,37.550055,126.9209169,947,1409,484
953,1156112068,카츠미 홍대본점,일식당,어울마당로 51 2층,37.549657,126.9207035,523,931,361
954,1744518019,불간짬뽕 홍대점,중식당,어울마당로 58-1 2층,37.5502616,126.9213113,870,3221,786
955,36504830,신주양꼬치 홍대점,양꼬치,와우산로 66 1층,37.5503933,126.923216,370,504,230
956,1615640168,쿠루미 홍대점,이자카야,와우산로15길 11,37.5497293,126.9225317,444,1876,382
957,1051163528,미티,양식,독막로9길 43 1층 미티,37.5501813,126.9204985,617,2160,454
958,20672072,심양 홍대점,양꼬치,독막로9길 43 1층,37.5501809,126.920587,1578,5236,1398
959,1771200419,오스테리아 리오,이탈리아음식,어울마당로5길 50 2층 오스테리아 리오,37.5500305,126.9181042,430,1636,347
960,1189142297,후타츠 홍대,일본식라면,와우산로15길 28 1층,37.5493818,126.9218116,2362,9261,2119
961,1142091847,써니하우스,브런치카페,와우산로1길 8 1층,37.5458631,126.9224075,89,212,77
962,2084998650,영보스,"카페,디저트",독막로19길 42-18 지층,37.5498069,126.924027,77,345,76
963,1879241674,노이즈,"카페,디저트",와우산로17길 10 1층,37.5503152,126.9224743,6,14,6
964,1955526348,만화살롱 유어마나,북카페,와우산로 13 B1,37.5456652,126.9227784,456,831,258
965,1198458478,옐로우브릭로드,케이크전문,와우산로14길 16 지층 2호,37.5503104,126.9238602,332,1141,321
966,2069570889,파니메,"카페,디저트",와우산로11길 9-9 2층,37.5485336,126.9224218,6,21,6
967,2057406976,엘리시온메이드카페,테마카페,와우산로17길 6 3층,37.550264,126.9226733,7,33,4
968,1702962954,히든 카페&바,"카페,디저트",독막로19길 42-22 1층,37.5500304,126.9239297,131,628,29
969,1534247529,앤드에이,"카페,디저트",토정로11길 54 1층,37.5460305,126.9237563,41,106,23
970,1359384874,EOD,"카페,디저트",와우산로 51-9 2층,37.5492146,126.9224786,65,125,56
971,1863699103,스위츠 찬미,"카페,디저트",와우산로22길 72 2층 202호,37.5493098,126.9240881,57,233,50
972,1840468850,카페 삡,"카페,디저트",와우산로13길 9 지1층 1호,37.5495961,126.9225906,136,306,125
973,1868117265,아크,"카페,디저트",와우산로 55 1층,37.5493872,126.9228789,338,1129,325
974,1809419661,죠스테이블,"카페,디저트",와우산로 56,37.5494468,126.9233911,67,154,49
975,2093348122,스틸애즈에버,"카페,디저트",광성로6길 10 1층,37.5493121,126.9381616,83,312,78
976,1941713415,케이팝하우스,카페,와우산로3길 47 1층,37.5455379,126.9204503,11,45,11
977,1175400846,카페 호기심,"카페,디저트",서강로14길 5 지하1~지상4층,37.5528073,126.9341066,1719,6975,1465
978,2021721464,삼티,브런치카페,와우산로 168 지층,37.5557262,126.9310412,26,114,25
979,1583544314,도란도란 경의숲길점,테마카페,와우산로29길 40-18 지층,37.5557165,126.9282061,4549,17820,4411
980,1979376010,누오바이탈리아,베이커리,독막로 241,37.5469136,126.9407432,670,1973,493
981,1976738864,포닐,베이커리,광성로 41-3 C동 1층,37.5500414,126.9374655,2391,8973,2120
982,1213231016,커피벌스데이,"카페,디저트",와우산로29길 26-33 1층 커피 벌스데이,37.5554933,126.928758,2206,8254,2057
983,2058034872,미요일 상수점,양식,와우산로 39-14 2층,37.5482612,126.9224192,199,916,182
984,1439967147,야키토리텐치,이자카야,와우산로13길 2 1층 101호,37.5500057,126.9227949,31,137,26
985,33084810,느리네,요리주점,와우산로3길 13 쿠시무라 건물 2층,37.546041,126.9222243,97,105,51
986,37260444,하꼬,이자카야,와우산로3길 15 1층,37.5460094,126.9221296,97,240,66
987,13492791,수지큐,바(BAR),와우산로15길 10 금덩어리,37.549937,126.9224521,46,48,21
988,19494374,디스틸,바(BAR),와우산로15길 10 1층,37.5499459,126.9224784,106,307,71
989,2062679915,홍대 혼술바 모이새,바(BAR),와우산로17길 11-5 2층,37.5499504,126.9222799,220,843,200
990,2046841051,러너펍 홍대점,"맥주,호프",와우산로 55 1층,37.5494001,126.9228925,9,39,6
991,1108313581,슬로모,바(BAR),와우산로3길 17 1층,37.545976,126.921988,24,114,23
992,2058897526,오운바이트,한식,와우산로13길 19 1층,37.5493505,126.9222175,129,568,118
993,1733839685,별헤는잔,바(BAR),와우산로 64 3층,37.5502077,126.9232577,249,927,191
994,1049623271,노보카인,바(BAR),와우산로3길 36 노보카인,37.5458686,126.9210331,192,870,170
995,19862138,비닐,바(BAR),와우산로 61-1,37.5500506,126.9229351,47,106,25
996,37746907,그레이트 후카바 홍대,바(BAR),와우산로17길 19 지하1층,37.5500733,126.921916,97,231,60
997,1150891498,육오공,바(BAR),독막로9길 38 3층,37.5498627,126.9206151,205,527,151
998,18349160,하울링후카바,바(BAR),어울마당로 59 지하 1층,37.5503893,126.9209408,31,49,19
999,1054183915,윙스,"맥주,호프",와우산로17길 14 1층,37.5502857,126.9221812,4,16,4
1000,1734665072,마트마타,양식,어울마당로 55-12 1층,37.5503243,126.9203915,140,483,108
1001,1318246481,환승역,술집,"독막로9길 33 1층,2층",37.5498195,126.920317,58,268,55
1002,1378729118,춘삼,"맥주,호프",와우산로15길 16 2층,37.5497874,126.9222807,1,,
1003,2078431579,오키도키 2호점,요리주점,와우산로17길 14 2층,37.5503615,126.9221598,58,213,56
1004,1772316440,벤더,바(BAR),와우산로14길 4 지하1층,37.5500388,126.9234072,6,6,2
1005,1709558072,장싸롱리저브,와인,와우산로3길 31 1층,37.545799,126.9212537,60,280,57
1006,1375203710,별빛퐁당,바(BAR),와우산로 66 지하 1층,37.5503938,126.9232413,310,1324,283
1007,1588457550,더헨즈,"맥주,호프",와우산로 64 지하1층,37.5502077,126.9232577,1,1,1
1008,1458616800,세븐틴벌스데이,바(BAR),독막로7길 56 지하,37.5501791,126.9201415,198,780,181
1009,2063456815,모두의모임 홍대점,술집,와우산로 63 3층,37.5502691,126.9228879,2,,
1010,1767810268,레이븐,바(BAR),와우산로17길 24 지하1층,37.5502986,126.9216382,1,,
1011,1800761793,247후카바,바(BAR),와우산로17길 15 4층,37.5500641,126.9220978,113,309,81
1012,21672863,하바나,바(BAR),어울마당로 53,37.549959,126.920875,18,63,13
1015,1351889411,육산장 홍대본점,"한식, 육류,고기요리",서울특별시 마포구 와우산로21길 31-11 1층,37.5519925,126.9220917,205,10245,2536
1016,2093267372,에그썸,"음식점, 양식",서울특별시 마포구 와우산로18길 30 1층,37.5514643,126.9240806,47,631,145
1017,1736095566,칸다소바,일본식라면,와우산로 51-6,37.5492716,126.9227124,5544,12821,3958
1018,2091156232,라장양갈비 양꼬치무한리필,양꼬치,와우산로21길 34 2층,37.552508,126.922166,1218,4538,1174
1019,1841366645,다이닝늘 홍대점,이탈리아음식,토정로 136-13 6층,37.5448701,126.9258209,270,1125,261
1020,1436718221,미도인 홍대,양식,잔다리로2길 19 1층,37.5516919,126.9209717,5441,18559,4672
1021,12894113,예티,인도음식,와우산로18길 20 홍대예티 1층,37.551051,126.9239298,1333,4291,982
1022,1068082260,테라김밥 홍대본점,김밥,어울마당로 79 1층,37.5521605,126.9214604,1599,1951,915
1023,1893685243,오일내 홍대점,돼지고기구이,어울마당로 70 2층,37.5513862,126.9214998,569,2095,537
1024,13353285,서강팔경,프랑스음식,"토정로 128 프렌치룸레스토랑8층, 홀 다이닝바9층",37.5449714,126.9253999,411,1045,284
1025,1038394700,마루샤브스카이 홍대직영점,샤브샤브,와우산로 94 홍익대학교 홍문관 16층,37.5525575,126.9248687,572,1928,511
1026,34959703,작가 홍대본점,요리주점,어울마당로 71,37.5514333,126.9212124,1012,1699,616
1027,2141581973,멘타카무쇼 홍대점,일본식라면,와우산로18길 29,37.5514643,126.9237917,35,127,24
1028,1777629862,타오마라탕 홍대점,마라탕,와우산로21길 28 2층,37.5524557,126.9223848,1971,7187,1608
1029,1806286054,데빌,바(BAR),와우산로19길 26 지하1층 데빌,37.5513655,126.9217037,560,2081,541
1030,1524035832,코너펍,"맥주,호프",와우산로19길 16,37.5513764,126.9223028,137,228,96
1031,746573822,썰스데이파티,바(BAR),와우산로21길 19-12 예원빌딩,37.5519245,126.9227058,646,810,319
1032,1411060895,틈새라면 홍대놀이터점,분식,와우산로21길 21 1층 틈새라면,37.5522348,126.9225994,431,694,249
1033,36628511,삼거리포차 홍대점,포장마차,와우산로 70 군봉빌딩,37.5507023,126.9232535,360,455,225
1034,11726132,레스토랑괴르츠,양식,토정로 136-13 JNC빌딩 7층,37.5448693,126.9258421,669,1475,458
1035,1061165053,길상양꼬치 홍대본점,양꼬치,와우산로21길 10 2층,37.5525481,126.9233774,846,3103,741
1036,20050417,홍대돈부리 본점,일식당,와우산로21길 28,37.5524338,126.9223491,1672,3703,1210
1037,19535343,카미야,일식당,와우산로21길 28-6,37.5525803,126.922372,1228,2426,887
1038,21817793,Monster Pizza,피자,와우산로 73,37.5509857,126.9230349,221,224,102
1039,2075313783,오다리집&대장금,한식,"잔다리로6길 36 2,3층",37.5522554,126.9212072,16,3,3
1040,308409881,효봉포차 홍대점,술집,와우산로18길 12 1층,37.5507345,126.9236653,226,423,154
1041,1120030012,창전197,요리주점,독막로22길 3-7 1층,37.547066,126.9297127,82,393,74
1042,1574894900,라밤바,"맥주,호프",와우산로19길 5 1층,37.5511364,126.9229164,55,85,38
1043,1644613514,주다방 서울홍대점,요리주점,잔다리로 8-3,37.5510802,126.9220277,172,238,117
1044,1315833471,포차플러팅,요리주점,"잔다리로 3 4층, 5층",37.5505358,126.9226471,58,151,48
1045,2039618213,포커나이츠 홍대점,"맥주,호프",잔다리로 5 4층,37.5505201,126.9224847,197,655,72
1046,1892207893,노모어피자 홍대점,피자,와우산로21길 20 1층 중앙호,37.5524227,126.9229793,106,255,89
1047,1553150505,홍대씨부엉,떡볶이,와우산로21길 28-6,37.5525889,126.9223397,1090,1854,680
1048,35150459,닭발부부 마포점,닭발,독막로22길 27,37.546788,126.9284702,148,204,68
1049,1753247150,베리굿 노래타운 홍대점,요리주점,잔다리로 5-1 3층,37.550509,126.9223121,524,1884,511
1050,2097231573,박스 서울,"맥주,호프",잔다리로 16 지하1층,37.5509001,126.9214662,0,,
1051,1013909886,수림식당 홍대점,중식당,와우산로21길 19-19 1층,37.5515441,126.9226136,1681,6733,1421
1052,37521193,닭꼬얌,"치킨,닭강정",와우산로18길 29 Terra빌딩 지층닭꼬얌,37.5514473,126.9238273,195,341,92
1053,2018138066,뉴트로2010 홍대점,"맥주,호프",잔다리로 3 3층,37.5506091,126.9226444,51,207,48
1054,31429249,광동포차,포장마차,잔다리로 5-1,37.550551,126.9223393,278,310,130
1055,2021177135,브라운쉘 Brownshell,"카페,디저트",와우산로21길 36-6 2층,37.552637,126.9220392,665,2712,647
1056,2087554071,오리엔탈라운지 홍대점,요리주점,잔다리로 3 6층,37.5505358,126.9226471,1,5,1
1057,1142945677,다트플렉스 홍대점,"맥주,호프","어울마당로 74 2층, 3층",37.5515862,126.9216337,254,771,215
1058,1910565375,도너 케밥,양식,와우산로21길 24 1증,37.5524292,126.9227135,106,266,87
1059,33292844,준스바,술집,와우산로19길 6-11 지하 1층,37.5517549,126.9229208,27,103,17
1060,1819371477,컴포즈커피 홍대삼거리점,카페,와우산로 73,37.5510467,126.923069,306,533,202
1061,1833809215,청년다방은화수식당 서울홍대점,분식,어울마당로 61 2층 청년다방은화수식당 홍대점,37.5505248,126.9210049,18,48,15
1062,2032994127,리버스 카페 & 바,바(BAR),와우산로19길 6-11 1층,37.5517551,126.9228639,44,183,42
1063,1413856763,파이널나인 서울홍대점,"맥주,호프",잔다리로 8 화진빌딩 3층 파이널나인 홍대점,37.5509195,126.922279,35,68,28
1064,31564613,T12,"맥주,호프",와우산로19길 15 지하,37.5511735,126.9222841,215,412,130
1065,2069350098,상고집,"육류,고기요리",와우산로 16 1층,37.5458657,126.9231281,388,1708,315
1066,1105757173,테라김밥,김밥,어울마당로 79 1층,37.5521923,126.9214062,1171,1583,786
1067,1257737318,ZigZagg,바(BAR),와우산로21길 19-16 1층,37.5517539,126.9225943,14,27,12
1068,1225095645,메이드문 메이드카페 홍대본점,"카페,디저트",잔다리로6길 34 2층,37.5522216,126.9209726,1019,4282,493
1069,1393363275,메타,바(BAR),와우산로19길 19 지하1층,37.5512338,126.921981,12,21,8
1070,19846824,깐부치킨 홍대점,"치킨,닭강정",어울마당로 58-1 1층,37.550265,126.921325,116,123,62
1071,59999648,에꼴리,이탈리아음식,와우산로13길 23 지하1층,37.549236,126.9220668,214,444,123
1072,1834479576,달콤왕가탕후루 홍대1호점,"카페,디저트",어울마당로 80 석영빌딩,37.5521154,126.9216457,77,109,65
1073,1289474010,에이비씨피자,피자,와우산로17길 11 1층,37.550098,126.9223627,21,46,19
1074,37672645,서강8경 율도,일식당,토정로 128 6층 서강8경 율도,37.5449567,126.9253568,73,146,45
1075,2038575855,코르테스,야식,와우산로13길 2 2층,37.5499832,126.9228328,3,12,3
1076,1328755660,더컨셉,요리주점,와우산로21길 31-10,37.5520826,126.9218397,145,301,113
1077,1442770136,더펍 스포츠펍 홍대,요리주점,와우산로 65 1층,37.5504115,126.9228866,20,77,18
1078,37555610,메가MGC커피 홍대점,카페,잔다리로6길 39,37.552407,126.9213916,1781,1922,820
1079,34013916,돈주는남자 본점,"육류,고기요리",잔다리로6길 34-9 돈주는남자,37.5519972,126.9210945,478,956,296
1080,1997859792,슬릿 홍대,"카페,디저트",와우산로21길 21-12 1층,37.5519231,126.9222598,281,619,215
1081,2085764310,에이에프씨,터키음식,와우산로 57 1층,37.5496567,126.922883,58,214,53
1082,1959618992,38도씨식당,양식,와우산로17길 19-17 2층,37.5494707,126.9215762,1859,6695,1651
1083,1793165688,요거트월드 홍대점,"카페,디저트",와우산로21길 8 1층,37.5525609,126.9234962,1230,2961,825
1084,1455299110,이수쭈꾸미 홍대점,한식,와우산로21길 36-6 1층,37.552614,126.9220353,3025,11588,2874
1085,1637627181,헤즈업 홍대점,"맥주,호프",잔다리로 7 3층,37.5505562,126.9221519,393,1367,118
1086,37915697,미로식당,한식,와우산로30길 80 1층,37.5520504,126.9278854,113,219,60
1087,1236818726,코자요,카페,와우산로21길 21,37.5522918,126.9227473,282,314,192
1088,1890693100,골목포차 홍대,요리주점,와우산로17길 20 1층,37.5504553,126.921813,182,694,172
1089,1493755793,ABC PIZZA & PUB,피자,와우산로17길 25 1층,37.5501116,126.9214528,25,92,24
1090,1292304113,온달집 홍대직영점,"육류,고기요리",잔다리로 9 1층,37.5506039,126.9219437,443,481,277
1091,2049902896,이집트경양식 홍대직영점,돈가스,"잔다리로6길 34-13 1층, 2층",37.5519535,126.9212201,112,500,108
1092,1328839265,소밧,"카페,디저트",독막로22길 28 1층 소밧(sovat),37.5467972,126.9282498,339,1317,244
1093,1074094089,레인커피 상수점,"카페,디저트",독막로 104 1층 레인커피 상수점,37.5475465,126.9249717,97,187,42
1094,1498973865,카페 엠,"카페,디저트",토정로 135 M빌딩 1층 카페엠,37.5455267,126.9259049,11,25,10
1095,2084346012,미스터 크레페&케밥,크레페,와우산로21길 14 1층,37.5525043,126.9231953,25,80,24
1096,1123520846,델루나카페&갤러리,"카페,디저트",와우산로21길 26,37.552456,126.9225599,84,213,75
1097,1922651189,카페드림 홍익대점,카페,와우산로 94 홍익대학교 인문사회관 A동 1층,37.5500545,126.9257214,841,1065,327
1098,1382054876,럭키 니키 케이키,케이크전문,독막로 144 1층,37.5473741,126.9294454,36,87,32
1099,212897207,밀가루인쇄소,케이크전문,와우산로10길 40,37.5484232,126.9247586,67,108,39
1100,1900564106,시러피하우스,"카페,디저트",독막로19길 8-17 1층,37.5485907,126.9254116,163,583,143
1101,1723535852,일라일라커피,"카페,디저트",독막로22길 9 1층,37.5471643,126.929328,182,757,133
1102,1115108921,CAFE AZ,카페,와우산로19길 18 (서교동) 1층 AZ,37.5513349,126.9219646,10,3,1
1103,1320213623,아지트,카페,와우산로19길 18 나동 1층,37.5513649,126.9219906,4,13,4
1104,2073111471,커피양장 WESTERN CLOTHES,카페,독막로22길 14 1층 가운데호,37.547163,126.928931,8,32,8
1105,1233666175,아리스터디카페,스터디카페,토정로 149 영재빌딩 2층 아리스터디카페,37.5458578,126.9276904,242,834,144
1106,1875679584,소울버튼블루,"카페,디저트",와우산로18길 21 1층,37.5511393,126.9238523,48,156,46
1107,1543012500,밀레니얼364,"카페,디저트",와우산로21길 21 2층,37.5522891,126.92267,220,533,175
1108,1968537729,더고물,"카페,디저트",와우산로21길 8 3층,37.5525691,126.9234947,63,231,59
1109,36372956,뚜레쥬르 마포밤섬점,베이커리,독막로20나길 22 상수동 래미안밤섬리베뉴1 상가2 B05호,37.5461364,126.9261367,524,543,159
1110,1373085958,밀카페 우프,"카페,디저트",독막로 147-7 근린생활시설(1단지) 104호,37.5480935,126.9300859,20,60,18
1111,2050294285,분바렌도케이크,케이크전문,독막로19길 27,37.5486998,126.9245905,1,,
1112,1192504376,하이라이트,테마카페,와우산로19길 6-11 1층,37.5517551,126.9228639,48,134,45
1113,390821152,캠퍼,"카페,디저트",와우산로 94 홍익대학교 제2기숙사 B107,37.5495023,126.9249478,113,186,55
1114,1194925881,하이빙수 홍대점,빙수,와우산로21길 31-10 2층,37.5520826,126.9218397,2,4,2
1115,981095114,파브리카,베이커리,와우산로 94 홍익대학교 홍문관 2층 R205 파브리카,37.5525425,126.9247985,607,1003,242
1116,1273722663,와플,와플,와우산로21길 3-1,37.5525505,126.9237485,9,18,8
1117,2015645994,에이엠나인,테이크아웃커피,독막로19길 5 1층 101호,37.5479681,126.9253165,0,,
1118,2072152071,헤이츄러스,"카페,디저트",어울마당로 79 1층,37.5521355,126.921456,12,25,12
1119,1984445864,그라찌에,카페,와우산로 94 홍익대학교 홍문관2층,37.5525665,126.9249463,306,596,179
1120,439563774,콜린스커피,"카페,디저트",신촌로12가길 18 1층,37.5556761,126.9335164,891,2869,762
1121,1007863766,모에모에큥 메이드카페,테마카페,독막로6길 16 2층,37.5473859,126.9172828,767,2773,304
1122,2059686876,괄호,"카페,디저트",광성로6길 24 2층,37.5487807,126.938681,35,116,34
1123,793858540,스타벅스 서강광흥창역점,카페,서강로 69 (창전동),37.549377,126.931661,3520,3749,944
1124,1507982265,띵크프룻,"카페,디저트",와우산로29길 14-12 1층,37.5553578,126.9291914,3336,12014,3223
1125,35425110,셀란 홍대홍문관점,베이커리,와우산로 94 홍익대학교 홍문관 2층,37.5525968,126.9253558,11,7,6
1126,34016066,언플러그드 홍대,라이브카페,와우산로33길 26 1층,37.5554557,126.9292592,196,253,94
1127,1359533932,갤러리카페 바이아스,갤러리카페,와우산로35길 53 2층,37.556476,126.927937,764,1136,429
1128,1326222218,달콤놀이터,"카페,디저트",와우산로21길 19-8,37.5520144,126.922734,265,458,231
1129,1966058011,디알씨 홍대,카페,와우산로 82 1층,37.5517696,126.9235933,78,,
1130,1176224601,브라운시티 갤러리점,"카페,디저트",와우산로29나길 13-3 1층,37.5545528,126.928228,794,1088,478
1131,2049247003,홉,"카페,디저트",와우산로37길 1 지1층,37.5557291,126.9306604,40,139,37
1132,1210404933,청23[청이삼] 연남,"카페,디저트",연희로 23 카페 청23,37.5609329,126.9265509,749,2870,726
1133,1519398666,아이갓에브리씽 KT&G상상마당홍대점,"카페,디저트",어울마당로 65 상상마당빌딩 3층,37.5509678,126.921063,17,44,16
1134,1908613139,자연도소금빵in연남,베이커리,양화로21길 33 1층,37.5596606,126.924425,973,1783,820
1135,1012556465,센트럴사이트 연남점,"카페,디저트",연희로 29-1 센트럴사이트,37.561549,126.9268517,2646,10199,2461
1136,36398891,츄로101 홍대본점,카페,어울마당로 128,37.5557643,126.9242936,1858,2438,1403
1137,1120312661,스타벅스 홍대역8번출구점,카페,양화로 166 (동교동),37.5568154,126.9241755,5025,6424,2977
1138,2017129728,어차 연남점,"카페,디저트",양화로23길 20 3층,37.5592907,126.9252995,1858,7890,1782
1139,1751162593,컴포즈커피 홍대서교점,카페,와우산로23길 41,37.554694,126.9235234,1008,1582,523
1140,1913777553,고망고 홍대입구역점,"과일,주스전문점",와우산로35길 71 1층,37.5564445,126.9268457,818,1773,600
1141,1627117848,차백도 신촌점,"카페,디저트","연세로 3 1, 2층",37.5560487,126.9367413,458,1094,367
1142,1934552743,카페멜랑,"카페,디저트",와우산로29라길 11 지층 101호,37.5551902,126.9271981,192,398,178
1143,1390204788,후루츠카페,"과일,주스전문점",와우산로 94 홍문관동 지2층 RB212호,37.5522931,126.9245457,13,26,9
1144,1917258544,백억커피 홍대점,"카페,디저트","와우산로30길 3 1층 103, 104호",37.5545272,126.930299,454,858,298
1145,2027372909,연플레이스 홍대카페 신촌점,"카페,디저트",신촌로 39,37.5574389,126.9310104,192,800,186
1146,13101696,산장,"전통,민속주점",와우산로18길 10 1층,37.5506501,126.9235267,137,158,74
1147,2008358127,잼라운지 홍대점,요리주점,와우산로21길 19-8 1층,37.552075,126.9226777,180,896,180
1148,1609583532,무쇠김치삼겹 홍대점,돼지고기구이,와우산로21길 20-5 1층 무쇠김치삼겹 홍대점,37.5526201,126.9227404,1268,3213,1077
1149,37609115,SKA,바(BAR),와우산로 66 3층,37.5504212,126.9232701,8,13,7
1150,1127862297,미친포차,포장마차,와우산로18길 15 2층,37.5509736,126.9236786,107,277,78
1151,38590463,플래닛,요리주점,와우산로19길 5,37.5511739,126.9227947,171,236,92
1152,36438676,리튬,바(BAR),와우산로18길 15 지하,37.5509772,126.9236585,40,126,32
1153,37625275,다모토리7,술집,와우산로 65 B1 다모토리7,37.5504243,126.9228409,20,39,14
1154,1607260521,커넥션,술집,와우산로19길 15 4층,37.5511699,126.9222837,7,18,6
1155,13123910,산울림1992,요리주점,서강로9길 60 산울림1992,37.5546943,126.9305177,1740,5510,1411
1156,1708884253,퀸덤,술집,와우산로19길 6-5 지하 1층,37.5515169,126.9228628,19,76,16
1157,1511724432,포근 합정점,이자카야,독막로9길 8 1층,37.5487343,126.9197565,829,,
1158,2007585357,홍대포차,요리주점,잔다리로 9 1층,37.5505661,126.9219728,3,15,3
1159,1487995260,얀씨클럽,"맥주,호프",독막로 140 지하1층 Yancey Club,37.5473128,126.92914,2,3,2
1160,1970868500,홍담,요리주점,와우산로29길 26-10 지하1층,37.5554247,126.9287919,1972,8041,1883
1161,1597888688,샤크펍,"맥주,호프",와우산로21길 19-7 1층,37.552011,126.9229133,23,79,21
1162,2027280628,두근두근 데빌,"맥주,호프",와우산로18길 38 지하1층,37.5519166,126.9239837,1,1,1
1163,1597898244,레이블,술집,와우산로19길 6-11 후문 3층 (JASE 건물),37.5517706,126.9228296,4,15,4
1164,1976526195,교장맥주 홍대입구역점,"맥주,호프","어울마당로 144-1 1층,2층",37.5561713,126.926016,3362,12373,3225
1165,32636661,디스,바(BAR),와우산로19길 11 지하1층,37.5511799,126.9224525,50,85,37
1166,836030725,디퍼 루프탑,"맥주,호프",와우산로38길 4 2층,37.555524,126.9309858,1020,2743,736
1167,2072958158,서울펍,술집,와우산로 73 2층,37.551024,126.9230121,3,6,2
1168,11700715,호그 홍대점,"맥주,호프",독막로 101 비알엘리텔빌딩 104호,37.5480492,126.9247668,4,3,2
1169,1916570996,헤이티키,술집,와우산로19길 21 2층,37.551187,126.9218772,16,73,16
1170,2020290509,홍대 혼술바 동행,바(BAR),잔다리로6길 34-6 지하1층 동행,37.5520832,126.9209896,104,456,79
1171,2029799989,쿠카스,바(BAR),와우산로13길 6 1층 101호,37.5498732,126.9226682,12,55,10
1172,1426346474,사운드 짐나지움,바(BAR),토정로9길 2 지하1층,37.5451764,126.9244396,2,,
1173,1276605451,역전포장마차 홍대연남점,요리주점,양화로 183 지하1층 B01호,37.5583475,126.9251388,4939,17231,4361
1174,18361327,이자카야무세이,이자카야,어울마당로 127-1,37.5559662,126.9240861,950,2636,791
1175,1080810206,에일크루 피자펍 홍대점,"맥주,호프",와우산로37길 7 에일크루,37.5559212,126.9304579,1873,5721,1515
1176,38261900,마지,요리주점,독막로 92-11 1층,37.5471581,126.923407,7,10,5
1177,2096164581,다이너펍 꽃길,"맥주,호프",와우산로18길 15 1층,37.550952,126.9236387,37,160,34
1178,1829112639,우이락 홍대점,한식,잔다리로6길 34 1층,37.552247,126.9209812,53,200,40
1179,1246971358,수지,요리주점,와우산로18길 10 지층,37.550615,126.9235957,6,15,3
1180,1064110125,어스,요리주점,와우산로21길 31 6층,37.5522078,126.9221246,37,110,30
1181,1153877778,떡볶이상회,요리주점,어울마당로 143-3 1층,37.556616,126.9256421,5488,20245,5174
1182,35135909,수염,"맥주,호프",와우산로29마길 21 1층,37.5550662,126.9264601,251,388,133
1183,1036696163,상수포차 상수역점,포장마차,와우산로 30,37.5471604,126.9231449,82,149,57
1184,36022086,더 노라,"맥주,호프",와우산로 75 2층 더노라,37.5512501,126.9230352,34,119,23
1185,1882914108,버즈,술집,와우산로 51,37.5491004,126.9228601,14,26,8
1186,2070235684,양자후통바,술집,와우산로21길 10 4층,37.5525762,126.923355,3,15,3
1187,37257404,여우골 홍대점,"초밥,롤",와우산로19길 9 2층 여우골,37.551153,126.922667,1523,4567,1160
1188,1511392368,할매솥뚜껑삼겹살 광흥창점,한식,토정로 197 1층일부,37.545451,126.932966,507,1998,390
1189,19406073,마포손칼국수,"칼국수,만두",창전로 54,37.5471118,126.9326763,941,1420,464
1190,13142739,화수목,중식당,창전로 70 화수목빌딩1~2층,37.5486251,126.9330396,700,1211,361
1191,18343806,채선당 광흥창점,샤브샤브,창전로 20,37.544609,126.930589,385,655,200
1192,1416597290,서강식당,한식,창전로 75-4 서강식당,37.5493894,126.9325587,1013,1412,368
1193,1667631735,숙성회136 마포점,생선회,독막로24길 11 1층 숙성회136 마포점,37.5467573,126.9328004,105,361,91
1194,1910933235,더욱 커피,"카페,디저트",서강로1길 16,37.5488895,126.9308399,255,690,102
1195,1162505392,옛맛 서울불고기,"육류,고기요리",창전로 45 103동 101호,37.5469156,126.9317097,227,571,147
1196,1377298244,파스쿠찌 마포광흥창점,카페,"토정로 195 지하1층, 지상1층",37.5455159,126.9327089,259,683,139
1197,1094379957,메가MGC커피 구수동사거리점,카페,창전로 35 1층(창전동),37.5457114,126.9318179,534,960,220
1198,2033757018,동대문엽기떡볶이 광흥창점,분식,토정로 196 1층,37.5452329,126.9325727,1,4,1
1199,1912681113,피자헛 신수점,피자,창전로 38 1층,37.5456592,126.9321415,286,447,189
1200,1336813472,60계치킨 서울광흥창역점,"치킨,닭강정",창전로 45 102동 104호(창전동),37.546211,126.9319048,54,96,37
1201,13154789,마포장,중식당,토정로 196 2층,37.5452291,126.9325979,467,591,164
1202,888430756,광흥창뚝배기집 서강점,한식,서강로1길 12-9 1층,37.5491263,126.9311345,564,585,229
1203,1653425829,르쁠레지흐뒤빵,베이커리,광성로 17 상가동 122호,37.5508766,126.9332539,164,539,101
1204,33840116,삼보성,중식당,창전로 32,37.545175,126.93186,440,582,220
1205,11568616,도미노피자 신촌점,피자,창전로 60,37.5478682,126.9328674,607,470,216
1206,2082122253,이삭토스트 광흥창역점,토스트,독막로 184 1층,37.5472613,126.9340028,17,55,15
1207,1595162113,프랭크버거 광흥창역점,햄버거,서강로 55 쌍용예가 2단지 내 상가 108호,37.5484269,126.9314604,644,1198,414
1208,2028511084,파파이스 광흥창역점,햄버거,창전로 60 서강빌딩 1층,37.5478087,126.9328482,51,124,42
1209,12971339,배스킨라빈스 광흥창역,아이스크림,독막로 145 서강쌍용예가,37.5484044,126.9314372,1504,1156,448
1210,1364435272,커피에반하다 마포상수점,카페,토정로 148 1층,37.5455999,126.9273374,192,638,150
1211,1951855563,리카르도,"카페,디저트",서강로 78 1층 리카르도,37.5501065,126.932562,366,513,133
1212,1807782262,스테레오포닉사운드,"카페,디저트",와우산로21길 6 1-2층,37.5525828,126.9235885,25,97,25
1213,1181301568,매머드익스프레스 홍대정문점,카페,와우산로18길 38 1층 매머드익스프레스 홍대정문점,37.5519166,126.9239837,152,216,73
1214,20932691,뚜레쥬르 구수동점,베이커리,토정로 190,37.5452779,126.9320481,1562,1819,386
1215,1727879737,컴포즈커피 마포광흥창점,카페,독막로 176,37.5472774,126.9330016,535,1154,246
1216,2047916535,이디야커피 광흥창역점,카페,서강로 46 1층,37.5472559,126.931675,21,91,19
1217,1497691822,카페 나팔꽃,카페,신수로 59 1층,37.5468823,126.9341451,207,457,136
1218,2053834510,카페 드뉴,"카페,디저트",독막로24길 11 1층,37.5466871,126.9327919,294,1276,246
1219,2021234983,헤링로스터리마포,카페,서강로 75-16 B06호,37.5496399,126.9313209,65,225,55
1220,2003425138,오브너,케이크전문,서강로1길 12-6 1층 왼쪽 상가,37.5488936,126.9312427,334,814,234
1221,13154897,파리바게뜨 광흥창역점,베이커리,독막로 172 6호선 광흥창역 4번출구 뒤쪽 20M,37.5471731,126.9327801,2228,2425,664
1222,1079986478,카페마루,"카페,디저트",창전로 66 1층,37.5483214,126.9329011,130,231,62
1223,2080124362,우지커피 신촌숲아이파크점,"카페,디저트",광성로 17 지1층 118호,37.551211,126.9338094,54,261,5
1224,1400032166,광흥창카페,카페,서강로1길 12-6 1층 광흥창카페,37.5488803,126.9311837,215,376,64
1225,1376842223,스마일찹쌀꽈배기 창전점,베이커리,서강로 97 창전동삼성아파트,37.5518773,126.9324709,607,711,215
1226,1989949769,두비덥 카페 쉼,"카페,디저트",서강로 65 2층,37.5491389,126.9316182,163,664,106
1227,2039423885,pdc피디씨,"카페,디저트",토정로16길 14 1층,37.5446442,126.9346118,7,27,7
1228,35623838,카페마당,"카페,디저트",토정로14길 9,37.5450097,126.9326029,21,66,17
1229,1704869018,홍카페 광흥창점,"카페,디저트",신수로 56 순총빌딩 1층(유안타증권빌딩),37.546601,126.9344582,24,47,10
1230,1033506894,카페국빛,"카페,디저트",신수로 35 1층,37.5447905,126.9340921,147,633,86
1231,13217131,페어리쿠키,케이크전문,토정로 192 2층 페어리쿠키,37.5452857,126.9321819,34,126,31
1232,1546871493,CAFE 185,"카페,디저트",토정로 185 1층 CAFE 185,37.545723,126.9315084,104,313,69
1233,1315112079,우주라이크커피 광흥창역점,카페,토정로 193 1층,37.5456938,126.9323788,165,311,97
1234,1223413792,세븐데이즈카페 신수점,"카페,디저트",신수로 26 1층,37.5438927,126.934317,3,6,2
1235,37886222,카페놀다,"카페,디저트",신수로 61 우주빌딩,37.5470745,126.9341647,296,342,124
1237,37918824,비로소커피,"카페,디저트",광성로6길 42,37.5481361,126.9392308,1397,2743,597
1238,1105658993,호핀치,카페,광성로6안길 6 1층 호핀치,37.548943,126.9383718,371,878,179
1240,1735827037,라나베르데,"카페,디저트",토정로17안길 15 1층 Rana Verde,37.5444944,126.9364416,584,2400,523
1241,1317049468,나이스워크투데이,"카페,디저트",백범로10길 26 2F,37.5482359,126.9397607,157,510,133
1242,2022842538,환대커피워크,브런치카페,독막로34길 4-4 1층,37.5465621,126.939956,183,772,167
1243,1122384224,메가MGC커피 신촌로터리점,카페,신촌로 75 1층 2호,37.5560872,126.9349277,1835,3853,887
1244,11878355,신촌미플,스터디카페,신촌로 109 신촌 르메이에르타운5 B2,37.5557273,126.9379912,203,438,71
1245,1935823121,투썸플레이스 신촌연세로점,카페,연세로 28,37.5580912,126.9371356,3465,5721,2162
1246,2059198868,버터앤쉘터 신촌점,"카페,디저트",명물길 42 1층,37.5584897,126.9389689,195,715,187
1247,1854833614,로덴드론 동교점,"카페,디저트",신촌로4길 11 세광빌딩 1층,37.5572601,126.9284647,944,1845,488
1248,1146246156,흐룩,양식,창전로 45 101동 104호,37.5467953,126.9315637,87,410,62
1249,2050648284,플로우 탭하우스,"맥주,호프",서강로3길 9 1층,37.5492015,126.9312748,24,110,18
1250,1362191069,투다리 광흥창점,"오뎅,꼬치",창전로 42 1층,37.5461395,126.9323003,247,432,160
1251,1803154327,오후네시,바(BAR),창전로 40-1 2층,37.5460339,126.9322942,5,17,5
1252,1477965814,박연식당,퓨전음식,토정로14길 16 1층,37.5447073,126.9324296,100,399,81
1253,270779179,덩크비어,"맥주,호프",창전로 45 서강한화오벨리스크,37.5464344,126.9319809,87,131,49
1254,1652245818,엘피바영도다방,바(BAR),독막로 176 지하1층,37.5472536,126.9330465,3,11,3
1255,1411204022,서교주담 신촌,요리주점,서강로13길 31-4 1층,37.5543385,126.9321704,2069,8267,1959
1256,37240691,불나방,술집,와우산로29길 4-26,37.5550324,126.9296108,503,1829,426
1257,35408316,더파이브올스,술집,와우산로29길 26-5 반지하,37.555486,126.9284922,252,634,184
1258,38464609,홍대 달동네,요리주점,와우산로29길 60 지층,37.5561336,126.9269835,502,1402,386
1259,2052127323,벙커,"맥주,호프",와우산로21길 12 지1층,37.5525553,126.9232706,1,1,1
1260,1763247619,술집감탄,술집,어울마당로 136-13 지1층 B01호,37.5557477,126.9256906,360,1576,341
1261,2082828973,플레이그라운드 홍대,"맥주,호프","와우산로21길 14 3층, 4층",37.5524875,126.9231522,2,10,2
1262,1787389756,밍키친,요리주점,와우산로29라길 7 지1층 101호,37.55547,126.9273854,64,271,59
1263,1925091711,덴오 심야식당,술집,토정로 213 1층 덴오 심야식당,37.5451175,126.9347348,59,,
1264,1571809839,신수로,"육류,고기요리",토정로 221 1층 고기집 신수로,37.5448923,126.9356334,3950,12453,2577
1265,1889644129,엉터리생고기 광흥창점,"육류,고기요리",서강로 71 1층,37.5496076,126.9317689,2018,6501,1175
1266,1158055805,다올돈가스,돈가스,서강로3길 9,37.5492878,126.9312905,54,194,30
1267,1082101557,곱분이곱창 신촌서강대점,"곱창,막창,양",광성로 28 상가동 지2층 106호,37.549708,126.9357843,69,159,59
1268,20906123,치킨뱅이 광흥창역점,"치킨,닭강정",독막로 147-6 1층 치킨뱅이,37.5478672,126.9302416,125,211,67
1269,1942683818,톤 아날로그,바(BAR),토정로17길 8 1층,37.5449449,126.9358166,6,30,5
1270,1097660525,응급실국물떡볶이 서울광흥창역점,분식,신수로 28 1층,37.544036,126.9343426,305,288,66
1271,1443860034,김밥천국 신수사거리점,분식,토정로 210,37.5449696,126.9340607,425,378,165
1272,1617804541,푸른마음횟집김배달,생선회,창전로 45 102동 103호,37.5463315,126.9319471,1,2,1
1273,1285025482,대마왕직화뼈구이해장국,감자탕,광성로 28 지2층 105호,37.5496936,126.9358496,293,1142,235
1274,1550725452,치킨렉 광흥창점,"치킨,닭강정",창전로 66 1층 3호,37.5483339,126.9328908,10,39,8
1275,1995767260,노랑통닭 광흥창점,"치킨,닭강정",창전로 45 101동 107호,37.546655,126.9316996,7,15,5
1276,18776435,순정이네식당,한식,독막로 188,37.5472532,126.9345,267,376,103
1277,2085167009,오백국수 광흥창역점,국수,창전로 50 1층,37.5467617,126.9326169,1,5,1
1278,1283264448,밤섬한식뷔페,한식뷔페,토정로 204,37.5450685,126.9334016,67,147,25
1279,18780081,현대한우촌,소고기구이,토정로 159 1층,37.5457725,126.9286779,185,221,65
1280,2078973042,마랑,"초밥,롤",토정로14길 12 1층,37.5448029,126.9324352,46,193,37
1281,19371066,위드치킨 신수점,"치킨,닭강정",토정로 223,37.5447173,126.9357429,45,53,23
1282,1935549627,돈까스포차,돈가스,독막로 132,37.5474549,126.9282378,226,186,66
1283,37373315,402키친,이탈리아음식,독막로 140 세방테크빌 101호,37.5473585,126.9291272,150,236,71
1284,35272001,옐로우피자 신수본점,피자,광성로 28 마포벽산 이-솔렌스힐아파트 상가동 107호,37.5497135,126.9357232,267,231,84
1285,1381715566,홍대쌀국수 롯데슈퍼마포점,베트남음식,토정로 193 1층,37.5456622,126.9324573,192,577,88
1286,1107379948,해오름김밥,김밥,토정로 225,37.5446043,126.9358603,115,250,68
1287,1231236089,방배동할매쭈꾸미 광흥창역점,한식,독막로26길 2 1층,37.5471899,126.9347225,343,1283,306
